[{"items": [{"title": "6589 Rosemoor St, Pittsburgh, PA 15217-3025, United States", "id": "here:af:streetsection:1xU4yNJESZ-.XO7ndFQpMD:CgcIBCDT_JsgEAEaBDY1ODkoZA", "resultType": "houseNumber", "houseNumberType": "PA", "address": {"label": "6589 Rosemoor St, Pittsburgh, PA 15217-3025, United States", "countryCode": "USA", "countryName": "United States", "stateCode": "PA", "state": "Pennsylvania", "county": "Allegheny", "city": "Pittsburgh", "district": "Squirrel Hill South", "street": "Rosemoor St", "postalCode": "15217-3025", "houseNumber": "6589"}, "position": {"lat": 40.42294, "lng": -79.92061}, "access": [{"lat": 40.4227, "lng": -79.92073}], "mapView": {"west": -79.92179, "south": 40.42204, "east": -79.91943, "north": 40.42384}, "scoring": {"queryScore": 0.82, "fieldScore": {"state": 1.0, "city": 1.0, "streets": [1.0], "houseNumber": 1.0, "postalCode": 1.0}}}]}, {"items": [{"title": "5700 Centre Ave, Pittsburgh, PA 15206-3708, United States", "id": "here:af:streetsection:FtartK.TyjxKvoR1wYsohD:CgcIBCCdqKIgEAEaBDU3MDAoZA", "resultType": "houseNumber", "houseNumberType": "PA", "address": {"label": "5700 Centre Ave, Pittsburgh, PA 15206-3708, United States", "countryCode": "USA", "countryName": "United States", "stateCode": "PA", "state": "Pennsylvania", "county": "Allegheny", "city": "Pittsburgh", "district": "Shadyside", "street": "Centre Ave", "postalCode": "15206-3708", "houseNumber": "5700"}, "position": {"lat": 40.45701, "lng": -79.93346}, "access": [{"lat": 40.45739, "lng": -79.93365}], "mapView": {"west": -79.93464, "south": 40.45611, "east": -79.93228, "north": 40.45791}, "scoring": {"queryScore": 1.0, "fieldScore": {"state": 1.0, "city": 1.0, "streets": [1.0], "houseNumber": 1.0, "postalCode": 1.0}}}]}, {"items": [{"title": "4136 Bristol St, Pittsburgh, PA 15207-1480, United States", "id": "here:af:streetsection:MNq61Um56DsENwwiUN1F4B:CggIBCDXy8qeAhABGgQ0MTM2KGQ", "resultType": "houseNumber", "houseNumberType": "PA", "address": {"label": "4136 Bristol St, Pittsburgh, PA 15207-1480, United States", "countryCode": "USA", "countryName": "United States", "stateCode": "PA", "state": "Pennsylvania", "county": "Allegheny", "city": "Pittsburgh", "district": "Greenfield", "street": "Bristol St", "postalCode": "15207-1480", "houseNumber": "4136"}, "position": {"lat": 40.4222, "lng": -79.94644}, "access": [{"lat": 40.42223, "lng": -79.94632}], "mapView": {"west": -79.94762, "south": 40.4213, "east": -79.94526, "north": 40.4231}, "scoring": {"queryScore": 1.0, "fieldScore": {"state": 1.0, "city": 1.0, "streets": [1.0], "houseNumber": 1.0, "postalCode": 1.0}}}]}, {"items": [{"title": "306 Saline St, Pittsburgh, PA 15207-1032, United States", "id": "here:af:streetsection:rPYl3Oj3Ul3cmM2i0.YfoD:CgcIBCCosp0gEAEaAzMwNihk", "resultType": "houseNumber", "houseNumberType": "PA", "address": {"label": "306 Saline St, Pittsburgh, PA 15207-1032, United States", "countryCode": "USA", "countryName": "United States", "stateCode": "PA", "state": "Pennsylvania", "county": "Allegheny", "city": "Pittsburgh", "district": "Greenfield", "street": "Saline St", "postalCode": "15207-1032", "houseNumber": "306"}, "position": {"lat": 40.42696, "lng": -79.94825}, "access": [{"lat": 40.4272, "lng": -79.94833}], "mapView": {"west": -79.94943, "south": 40.42606, "east": -79.94707, "north": 40.42786}, "scoring": {"queryScore": 1.0, "fieldScore": {"state": 1.0, "city": 1.0, "streets": [1.0], "houseNumber": 1.0, "postalCode": 1.0}}}]}, {"items": [{"title": "6310 Darlington Rd, Pittsburgh, PA 15217-1836, United States", "id": "here:af:streetsection:LG8H3j2dh6rRpWQIybd-CC:CgcIBCCO8JsgEAEaBDYzMTAoZA", "resultType": "houseNumber", "houseNumberType": "PA", "address": {"label": "6310 Darlington Rd, Pittsburgh, PA 15217-1836, United States", "countryCode": "USA", "countryName": "United States", "stateCode": "PA", "state": "Pennsylvania", "county": "Allegheny", "city": "Pittsburgh", "district": "Squirrel Hill South", "street": "Darlington Rd", "postalCode": "15217-1836", "houseNumber": "6310"}, "position": {"lat": 40.43689, "lng": -79.91876}, "access": [{"lat": 40.43713, "lng": -79.91874}], "mapView": {"west": -79.91994, "south": 40.43599, "east": -79.91758, "north": 40.43779}, "scoring": {"queryScore": 1.0, "fieldScore": {"state": 1.0, "city": 1.0, "streets": [1.0], "houseNumber": 1.0, "postalCode": 1.0}}}]}, {"items": [{"title": "719 Amberson Ave, Pittsburgh, PA 15232-1401, United States", "id": "here:af:streetsection:zZCf90yE8Vdw3DdAutUJBB:CgcIBCDGj6EgEAEaAzcxOShk", "resultType": "houseNumber", "houseNumberType": "PA", "address": {"label": "719 Amberson Ave, Pittsburgh, PA 15232-1401, United States", "countryCode": "USA", "countryName": "United States", "stateCode": "PA", "state": "Pennsylvania", "county": "Allegheny", "city": "Pittsburgh", "district": "Shadyside", "street": "Amberson Ave", "postalCode": "15232-1401", "houseNumber": "719"}, "position": {"lat": 40.4499, "lng": -79.9396}, "access": [{"lat": 40.44975, "lng": -79.94003}], "mapView": {"west": -79.94078, "south": 40.449, "east": -79.93842, "north": 40.4508}, "scoring": {"queryScore": 1.0, "fieldScore": {"state": 1.0, "city": 1.0, "streets": [1.0], "houseNumber": 1.0, "postalCode": 1.0}}}]}, {"items": [{"title": "938 Greenfield Ave, Pittsburgh, PA 15217-2631, United States", "id": "here:af:streetsection:lxto07wXM7ZsL8ZFz1zjAC:CgcIBCCHk50gEAEaAzkzOChk", "resultType": "houseNumber", "houseNumberType": "PA", "address": {"label": "938 Greenfield Ave, Pittsburgh, PA 15217-2631, United States", "countryCode": "USA", "countryName": "United States", "stateCode": "PA", "state": "Pennsylvania", "county": "Allegheny", "city": "Pittsburgh", "district": "Greenfield", "street": "Greenfield Ave", "postalCode": "15217-2631", "houseNumber": "938"}, "position": {"lat": 40.42348, "lng": -79.9321}, "access": [{"lat": 40.42363, "lng": -79.93203}], "mapView": {"west": -79.93328, "south": 40.42258, "east": -79.93092, "north": 40.42438}, "scoring": {"queryScore": 1.0, "fieldScore": {"state": 1.0, "city": 1.0, "streets": [1.0], "houseNumber": 1.0, "postalCode": 1.0}}}]}, {"items": [{"title": "825 Morewood Ave, Pittsburgh, PA 15213-2900, United States", "id": "here:af:streetsection:hGyAvfoFPVzRWd7GkslFVD:CgcIBCCjqd9iEAEaAzgyNShk", "resultType": "houseNumber", "houseNumberType": "PA", "address": {"label": "825 Morewood Ave, Pittsburgh, PA 15213-2900, United States", "countryCode": "USA", "countryName": "United States", "stateCode": "PA", "state": "Pennsylvania", "county": "Allegheny", "city": "Pittsburgh", "district": "Shadyside", "street": "Morewood Ave", "postalCode": "15213-2900", "houseNumber": "825"}, "position": {"lat": 40.44841, "lng": -79.94202}, "access": [{"lat": 40.44837, "lng": -79.94256}], "mapView": {"west": -79.9432, "south": 40.44751, "east": -79.94084, "north": 40.44931}, "scoring": {"queryScore": 0.89, "fieldScore": {"state": 1.0, "city": 1.0, "streets": [1.0], "houseNumber": 1.0, "postalCode": 1.0}}}]}, {"items": [{"title": "1074 Devon Rd, Pittsburgh, PA 15213-3802, United States", "id": "here:af:streetsection:no7hmY0ilZodlee0CqtHdD:CgcIBCC4gpsgEAEaBDEwNzQoZA", "resultType": "houseNumber", "houseNumberType": "PA", "address": {"label": "1074 Devon Rd, Pittsburgh, PA 15213-3802, United States", "countryCode": "USA", "countryName": "United States", "stateCode": "PA", "state": "Pennsylvania", "county": "Allegheny", "city": "Pittsburgh", "district": "Squirrel Hill North", "street": "Devon Rd", "postalCode": "15213-3802", "houseNumber": "1074"}, "position": {"lat": 40.44565, "lng": -79.94065}, "access": [{"lat": 40.44554, "lng": -79.94046}], "mapView": {"west": -79.94183, "south": 40.44475, "east": -79.93947, "north": 40.44655}, "scoring": {"queryScore": 1.0, "fieldScore": {"state": 1.0, "city": 1.0, "streets": [1.0], "houseNumber": 1.0, "postalCode": 1.0}}}]}, {"items": [{"title": "5615 Howe St, Pittsburgh, PA 15232-2415, United States", "id": "here:af:streetsection:lJDok.-UZLBDDj7Gwf9lWB:CgcIBCCztaIgEAEaBDU2MTUoZA", "resultType": "houseNumber", "houseNumberType": "PA", "address": {"label": "5615 Howe St, Pittsburgh, PA 15232-2415, United States", "countryCode": "USA", "countryName": "United States", "stateCode": "PA", "state": "Pennsylvania", "county": "Allegheny", "city": "Pittsburgh", "district": "Shadyside", "street": "Howe St", "postalCode": "15232-2415", "houseNumber": "5615"}, "position": {"lat": 40.45126, "lng": -79.93116}, "access": [{"lat": 40.45103, "lng": -79.93104}], "mapView": {"west": -79.93234, "south": 40.45036, "east": -79.92998, "north": 40.45216}, "scoring": {"queryScore": 1.0, "fieldScore": {"state": 1.0, "city": 1.0, "streets": [1.0], "houseNumber": 1.0, "postalCode": 1.0}}}]}]