[{"items": [{"title": "3418 Penn Ave, Pittsburgh, PA 15201-1304, United States", "id": "here:af:streetsection:krdAFI8jtgQB5VvoapbFiD:CgcIBCCk26AgEAEaBDM0MTgoZA", "resultType": "houseNumber", "houseNumberType": "PA", "address": {"label": "3418 Penn Ave, Pittsburgh, PA 15201-1304, United States", "countryCode": "USA", "countryName": "United States", "stateCode": "PA", "state": "Pennsylvania", "county": "Allegheny", "city": "Pittsburgh", "district": "Lower Lawrenceville", "street": "Penn Ave", "postalCode": "15201-1304", "houseNumber": "3418"}, "position": {"lat": 40.46286, "lng": -79.96646}, "access": [{"lat": 40.46303, "lng": -79.96667}], "mapView": {"west": -79.96764, "south": 40.46196, "east": -79.96528, "north": 40.46376}, "scoring": {"queryScore": 1.0, "fieldScore": {"state": 1.0, "city": 1.0, "streets": [1.0], "houseNumber": 1.0}}}]}, {"items": [{"title": "435 Sweetbriar St, Pittsburgh, PA 15211-1121, United States", "id": "here:af:streetsection:5G48Us9xWnlGiDIwhEhFvA:CgcIBCDWgqAgEAEaAzQzNShk", "resultType": "houseNumber", "houseNumberType": "PA", "address": {"label": "435 Sweetbriar St, Pittsburgh, PA 15211-1121, United States", "countryCode": "USA", "countryName": "United States", "stateCode": "PA", "state": "Pennsylvania", "county": "Allegheny", "city": "Pittsburgh", "district": "Duquesne Heights", "street": "Sweetbriar St", "postalCode": "15211-1121", "houseNumber": "435"}, "position": {"lat": 40.43474, "lng": -80.0222}, "access": [{"lat": 40.43476, "lng": -80.02242}], "mapView": {"west": -80.02338, "south": 40.43384, "east": -80.02102, "north": 40.43564}, "scoring": {"queryScore": 1.0, "fieldScore": {"state": 1.0, "city": 1.0, "streets": [1.0], "houseNumber": 1.0}}}]}, {"items": [{"title": "435 Sweetbriar St, Pittsburgh, PA 15211-1121, United States", "id": "here:af:streetsection:5G48Us9xWnlGiDIwhEhFvA:CgcIBCDWgqAgEAEaAzQzNShk", "resultType": "houseNumber", "houseNumberType": "PA", "address": {"label": "435 Sweetbriar St, Pittsburgh, PA 15211-1121, United States", "countryCode": "USA", "countryName": "United States", "stateCode": "PA", "state": "Pennsylvania", "county": "Allegheny", "city": "Pittsburgh", "district": "Duquesne Heights", "street": "Sweetbriar St", "postalCode": "15211-1121", "houseNumber": "435"}, "position": {"lat": 40.43474, "lng": -80.0222}, "access": [{"lat": 40.43476, "lng": -80.02242}], "mapView": {"west": -80.02338, "south": 40.43384, "east": -80.02102, "north": 40.43564}, "scoring": {"queryScore": 0.91, "fieldScore": {"state": 1.0, "city": 1.0, "streets": [1.0], "houseNumber": 1.0}}}]}, {"items": [{"title": "4634 Browns Hill Rd, Pittsburgh, PA 15217-2919, United States", "id": "here:af:streetsection:ZicAEP.DgDFBuX-1aer0CA:CgcIBCCs3aYgEAEaBDQ2MzQoZA", "resultType": "houseNumber", "houseNumberType": "PA", "address": {"label": "4634 Browns Hill Rd, Pittsburgh, PA 15217-2919, United States", "countryCode": "USA", "countryName": "United States", "stateCode": "PA", "state": "Pennsylvania", "county": "Allegheny", "city": "Pittsburgh", "district": "Squirrel Hill South", "street": "Browns Hill Rd", "postalCode": "15217-2919", "houseNumber": "4634"}, "position": {"lat": 40.41532, "lng": -79.92403}, "access": [{"lat": 40.415, "lng": -79.92447}], "mapView": {"west": -79.92521, "south": 40.41442, "east": -79.92285, "north": 40.41622}, "scoring": {"queryScore": 0.88, "fieldScore": {"state": 1.0, "city": 1.0, "streets": [1.0], "houseNumber": 1.0}}}]}, {"items": [{"title": "4400 5th Ave, Pittsburgh, PA 15213-2617, United States", "id": "here:af:streetsection:6JBgKr-nDFsWhT5-qksVPC:CgcIBCDaoKEgEAEaBDQ0MDAoZA", "resultType": "houseNumber", "houseNumberType": "PA", "address": {"label": "4400 5th Ave, Pittsburgh, PA 15213-2617, United States", "countryCode": "USA", "countryName": "United States", "stateCode": "PA", "state": "Pennsylvania", "county": "Allegheny", "city": "Pittsburgh", "district": "North Oakland", "street": "5th Ave", "postalCode": "15213-2617", "houseNumber": "4400"}, "position": {"lat": 40.44614, "lng": -79.95104}, "access": [{"lat": 40.44676, "lng": -79.95121}], "mapView": {"west": -79.95222, "south": 40.44524, "east": -79.94986, "north": 40.44704}, "scoring": {"queryScore": 1.0, "fieldScore": {"state": 1.0, "city": 1.0, "streets": [1.0], "houseNumber": 1.0}}}]}, {"items": [{"title": "1616 Forbes Ave, Pittsburgh, PA 15219-5840, United States", "id": "here:af:streetsection:sbH6fYb.QK2i97R3TMjOSB:CgcIBCDL9Z8gEAEaBDE2MTYoZA", "resultType": "houseNumber", "houseNumberType": "PA", "address": {"label": "1616 Forbes Ave, Pittsburgh, PA 15219-5840, United States", "countryCode": "USA", "countryName": "United States", "stateCode": "PA", "state": "Pennsylvania", "county": "Allegheny", "city": "Pittsburgh", "district": "Bluff", "street": "Forbes Ave", "postalCode": "15219-5840", "houseNumber": "1616"}, "position": {"lat": 40.43737, "lng": -79.98351}, "access": [{"lat": 40.43757, "lng": -79.9835}], "mapView": {"west": -79.98469, "south": 40.43647, "east": -79.98233, "north": 40.43827}, "scoring": {"queryScore": 1.0, "fieldScore": {"state": 1.0, "city": 1.0, "streets": [1.0], "houseNumber": 1.0}}}]}, {"items": [{"title": "600 5th Ave, Pittsburgh, PA 15219-3010, United States", "id": "here:af:streetsection:KgygKIpgeBJArxhvuK.CpC:CgcIBCCi8YFxEAEaAzYwMChk", "resultType": "houseNumber", "houseNumberType": "PA", "address": {"label": "600 5th Ave, Pittsburgh, PA 15219-3010, United States", "countryCode": "USA", "countryName": "United States", "stateCode": "PA", "state": "Pennsylvania", "county": "Allegheny", "city": "Pittsburgh", "district": "Grant Street", "street": "5th Ave", "postalCode": "15219-3010", "houseNumber": "600"}, "position": {"lat": 40.43866, "lng": -79.99434}, "access": [{"lat": 40.43891, "lng": -79.99467}], "mapView": {"west": -79.99552, "south": 40.43776, "east": -79.99316, "north": 40.43956}, "scoring": {"queryScore": 1.0, "fieldScore": {"state": 1.0, "city": 1.0, "streets": [1.0], "houseNumber": 1.0}}}]}, {"items": [{"title": "2133 Brownsville Rd, Pittsburgh, PA 15210-4205, United States", "id": "here:af:streetsection:z9bYo3V4iM6GYSUNJKlBPA:CgcIBCDC_5ogEAEaBDIxMzMoZA", "resultType": "houseNumber", "houseNumberType": "PA", "address": {"label": "2133 Brownsville Rd, Pittsburgh, PA 15210-4205, United States", "countryCode": "USA", "countryName": "United States", "stateCode": "PA", "state": "Pennsylvania", "county": "Allegheny", "city": "Pittsburgh", "district": "Carrick", "street": "Brownsville Rd", "postalCode": "15210-4205", "houseNumber": "2133"}, "position": {"lat": 40.39204, "lng": -79.98615}, "access": [{"lat": 40.39204, "lng": -79.98661}], "mapView": {"west": -79.98733, "south": 40.39114, "east": -79.98497, "north": 40.39294}, "scoring": {"queryScore": 1.0, "fieldScore": {"state": 1.0, "city": 1.0, "streets": [1.0], "houseNumber": 1.0}}}]}, {"items": [{"title": "803 E Warrington Ave, Pittsburgh, PA 15210-1515, United States", "id": "here:af:streetsection:34W69oUNKziYqFR7wFMAKA:CgcIBCCFqZ8gEAEaAzgwMyhk", "resultType": "houseNumber", "houseNumberType": "PA", "address": {"label": "803 E Warrington Ave, Pittsburgh, PA 15210-1515, United States", "countryCode": "USA", "countryName": "United States", "stateCode": "PA", "state": "Pennsylvania", "county": "Allegheny", "city": "Pittsburgh", "district": "Allentown", "street": "E Warrington Ave", "postalCode": "15210-1515", "houseNumber": "803"}, "position": {"lat": 40.42208, "lng": -79.99346}, "access": [{"lat": 40.42182, "lng": -79.99345}], "mapView": {"west": -79.99464, "south": 40.42118, "east": -79.99228, "north": 40.42298}, "scoring": {"queryScore": 1.0, "fieldScore": {"state": 1.0, "city": 1.0, "streets": [1.0], "houseNumber": 1.0}}}]}, {"items": [{"title": "5384 Mifflin Rd, Pittsburgh, PA 15207-2323, United States", "id": "here:af:streetsection:GqBLq5DkQuP3cb.peNRytA:CggIBCDu-NvFAhABGgQ1Mzg0KGQ", "resultType": "houseNumber", "houseNumberType": "PA", "address": {"label": "5384 Mifflin Rd, Pittsburgh, PA 15207-2323, United States", "countryCode": "USA", "countryName": "United States", "stateCode": "PA", "state": "Pennsylvania", "county": "Allegheny", "city": "Pittsburgh", "district": "Lincoln Place", "street": "Mifflin Rd", "postalCode": "15207-2323", "houseNumber": "5384"}, "position": {"lat": 40.36876, "lng": -79.91046}, "access": [{"lat": 40.36873, "lng": -79.91023}], "mapView": {"west": -79.91164, "south": 40.36786, "east": -79.90928, "north": 40.36966}, "scoring": {"queryScore": 1.0, "fieldScore": {"state": 1.0, "city": 1.0, "streets": [1.0], "houseNumber": 1.0}}}]}]