[{"items": [{"title": "3955 Liberty Ave, Pittsburgh, PA 15224-1420, United States", "id": "here:af:streetsection:r882xw.s6Q9XbnR-hBCeWB:CggIBCDaidzFAhABGgQzOTU1KGQ", "resultType": "houseNumber", "houseNumberType": "PA", "address": {"label": "3955 Liberty Ave, Pittsburgh, PA 15224-1420, United States", "countryCode": "USA", "countryName": "United States", "stateCode": "PA", "state": "Pennsylvania", "county": "Allegheny", "city": "Pittsburgh", "district": "Lower Lawrenceville", "street": "Liberty Ave", "postalCode": "15224-1420", "houseNumber": "3955"}, "position": {"lat": 40.46295, "lng": -79.95746}, "access": [{"lat": 40.46281, "lng": -79.95741}], "mapView": {"west": -79.95864, "south": 40.46205, "east": -79.95628, "north": 40.46385}, "scoring": {"queryScore": 1.0, "fieldScore": {"state": 1.0, "city": 1.0, "streets": [1.0], "houseNumber": 1.0}}}]}, {"items": [{"title": "777 Casino Dr, Pittsburgh, PA 15212-5840, United States", "id": "here:af:streetsection:Pa1rwMH3zXnHWMPuYzKNVD:CgcIBCDd_uBiEAEaAzc3Nyhk", "resultType": "houseNumber", "houseNumberType": "PA", "address": {"label": "777 Casino Dr, Pittsburgh, PA 15212-5840, United States", "countryCode": "USA", "countryName": "United States", "stateCode": "PA", "state": "Pennsylvania", "county": "Allegheny", "city": "Pittsburgh", "district": "Chateau", "street": "Casino Dr", "postalCode": "15212-5840", "houseNumber": "777"}, "position": {"lat": 40.4472, "lng": -80.02216}, "access": [{"lat": 40.44745, "lng": -80.02089}], "mapView": {"west": -80.02347, "south": 40.4462, "east": -80.02085, "north": 40.4482}, "scoring": {"queryScore": 1.0, "fieldScore": {"state": 1.0, "city": 1.0, "streets": [1.0], "houseNumber": 1.0}}}]}, {"items": [{"title": "1501 Bedford Ave, Pittsburgh, PA 15219, United States", "id": "here:af:streetsection:hfUFtqLL5RVZK3noFzAOxD:EAIaBDE1MDEoZA", "resultType": "houseNumber", "houseNumberType": "interpolated", "address": {"label": "1501 Bedford Ave, Pittsburgh, PA 15219, United States", "countryCode": "USA", "countryName": "United States", "stateCode": "PA", "state": "Pennsylvania", "county": "Allegheny", "city": "Pittsburgh", "district": "Crawford Roberts Hill", "street": "Bedford Ave", "postalCode": "15219", "houseNumber": "1501"}, "position": {"lat": 40.443, "lng": -79.99097}, "access": [{"lat": 40.44289, "lng": -79.99087}], "mapView": {"west": -79.99215, "south": 40.4421, "east": -79.98979, "north": 40.4439}, "houseNumberFallback": true, "scoring": {"queryScore": 0.9, "fieldScore": {"state": 1.0, "city": 1.0, "streets": [1.0], "houseNumber": 0.34}}}]}, {"items": [{"title": "526 N Euclid Ave, Pittsburgh, PA 15206-2440, United States", "id": "here:af:streetsection:55fgJtOzISDfp5qny1gGaC:CgcIBCDA0qYgEAEaAzUyNihk", "resultType": "houseNumber", "houseNumberType": "PA", "address": {"label": "526 N Euclid Ave, Pittsburgh, PA 15206-2440, United States", "countryCode": "USA", "countryName": "United States", "stateCode": "PA", "state": "Pennsylvania", "county": "Allegheny", "city": "Pittsburgh", "district": "East Liberty", "street": "N Euclid Ave", "postalCode": "15206-2440", "houseNumber": "526"}, "position": {"lat": 40.46745, "lng": -79.92466}, "access": [{"lat": 40.4675, "lng": -79.92483}], "mapView": {"west": -79.92584, "south": 40.46655, "east": -79.92348, "north": 40.46835}, "scoring": {"queryScore": 1.0, "fieldScore": {"state": 1.0, "city": 1.0, "streets": [1.0], "houseNumber": 1.0}}}]}, {"items": [{"title": "4914 Kincaid St, Pittsburgh, PA 15224-1215, United States", "id": "here:af:streetsection:YeqPyuVzrncl6-1dLpcKAC:CgcIBCD4_6EgEAEaBDQ5MTQoZA", "resultType": "houseNumber", "houseNumberType": "PA", "address": {"label": "4914 Kincaid St, Pittsburgh, PA 15224-1215, United States", "countryCode": "USA", "countryName": "United States", "stateCode": "PA", "state": "Pennsylvania", "county": "Allegheny", "city": "Pittsburgh", "district": "Garfield", "street": "Kincaid St", "postalCode": "15224-1215", "houseNumber": "4914"}, "position": {"lat": 40.46731, "lng": -79.94401}, "access": [{"lat": 40.46742, "lng": -79.94398}], "mapView": {"west": -79.94519, "south": 40.46641, "east": -79.94283, "north": 40.46821}, "scoring": {"queryScore": 1.0, "fieldScore": {"state": 1.0, "city": 1.0, "streets": [1.0], "houseNumber": 1.0}}}]}, {"items": [{"title": "4918 Kincaid St, Pittsburgh, PA 15224-1215, United States", "id": "here:af:streetsection:YeqPyuVzrncl6-1dLpcKAC:CgcIBCDTkqMgEAEaBDQ5MTgoZA", "resultType": "houseNumber", "houseNumberType": "PA", "address": {"label": "4918 Kincaid St, Pittsburgh, PA 15224-1215, United States", "countryCode": "USA", "countryName": "United States", "stateCode": "PA", "state": "Pennsylvania", "county": "Allegheny", "city": "Pittsburgh", "district": "Garfield", "street": "Kincaid St", "postalCode": "15224-1215", "houseNumber": "4918"}, "position": {"lat": 40.46728, "lng": -79.94385}, "access": [{"lat": 40.4674, "lng": -79.94382}], "mapView": {"west": -79.94503, "south": 40.46638, "east": -79.94267, "north": 40.46818}, "scoring": {"queryScore": 1.0, "fieldScore": {"state": 1.0, "city": 1.0, "streets": [1.0], "houseNumber": 1.0}}}]}, {"items": [{"title": "315 Anita Ave, Pittsburgh, PA 15217-3172, United States", "id": "here:af:streetsection:GjB.lTqE6yjHGFDUSRNsMD:CggIBCDwwNaUAhABGgMzMTUoZA", "resultType": "houseNumber", "houseNumberType": "PA", "address": {"label": "315 Anita Ave, Pittsburgh, PA 15217-3172, United States", "countryCode": "USA", "countryName": "United States", "stateCode": "PA", "state": "Pennsylvania", "county": "Allegheny", "city": "Pittsburgh", "district": "Squirrel Hill South", "street": "Anita Ave", "postalCode": "15217-3172", "houseNumber": "315"}, "position": {"lat": 40.42331, "lng": -79.91754}, "access": [{"lat": 40.42349, "lng": -79.91761}], "mapView": {"west": -79.91872, "south": 40.42241, "east": -79.91636, "north": 40.42421}, "scoring": {"queryScore": 1.0, "fieldScore": {"state": 1.0, "city": 1.0, "streets": [1.0], "houseNumber": 1.0}}}]}, {"items": [{"title": "5249 Fair Oaks St, Pittsburgh, PA 15217-1051, United States", "id": "here:af:streetsection:8Crl4Qo91Gw-CynNaQtmaB:CgcIBCCjo5wgEAEaBDUyNDkoZA", "resultType": "houseNumber", "houseNumberType": "PA", "address": {"label": "5249 Fair Oaks St, Pittsburgh, PA 15217-1051, United States", "countryCode": "USA", "countryName": "United States", "stateCode": "PA", "state": "Pennsylvania", "county": "Allegheny", "city": "Pittsburgh", "district": "Squirrel Hill North", "street": "Fair Oaks St", "postalCode": "15217-1051", "houseNumber": "5249"}, "position": {"lat": 40.44325, "lng": -79.9364}, "access": [{"lat": 40.44335, "lng": -79.93575}], "mapView": {"west": -79.93758, "south": 40.44235, "east": -79.93522, "north": 40.44415}, "scoring": {"queryScore": 1.0, "fieldScore": {"state": 1.0, "city": 1.0, "streets": [1.0], "houseNumber": 1.0}}}]}, {"items": [{"title": "1812 Rhine St, Pittsburgh, PA 15212-3714, United States", "id": "here:af:streetsection:Qjz-dYD5B9uj3dcgPBaF8C:CgcIBCC7uJQfEAEaBDE4MTIoZA", "resultType": "houseNumber", "houseNumberType": "PA", "address": {"label": "1812 Rhine St, Pittsburgh, PA 15212-3714, United States", "countryCode": "USA", "countryName": "United States", "stateCode": "PA", "state": "Pennsylvania", "county": "Allegheny", "city": "Pittsburgh", "district": "Spring Hill City View", "street": "Rhine St", "postalCode": "15212-3714", "houseNumber": "1812"}, "position": {"lat": 40.46491, "lng": -79.9917}, "access": [{"lat": 40.46486, "lng": -79.99196}], "mapView": {"west": -79.99288, "south": 40.46401, "east": -79.99052, "north": 40.46581}, "scoring": {"queryScore": 1.0, "fieldScore": {"state": 1.0, "city": 1.0, "streets": [1.0], "houseNumber": 1.0}}}]}, {"items": [{"title": "1823 Rhine St, Pittsburgh, PA 15212-3713, United States", "id": "here:af:streetsection:Qjz-dYD5B9uj3dcgPBaF8C:CgcIBCC6hZYfEAEaBDE4MjMoZA", "resultType": "houseNumber", "houseNumberType": "PA", "address": {"label": "1823 Rhine St, Pittsburgh, PA 15212-3713, United States", "countryCode": "USA", "countryName": "United States", "stateCode": "PA", "state": "Pennsylvania", "county": "Allegheny", "city": "Pittsburgh", "district": "Spring Hill City View", "street": "Rhine St", "postalCode": "15212-3713", "houseNumber": "1823"}, "position": {"lat": 40.46514, "lng": -79.9922}, "access": [{"lat": 40.4652, "lng": -79.99208}], "mapView": {"west": -79.99338, "south": 40.46424, "east": -79.99102, "north": 40.46604}, "scoring": {"queryScore": 1.0, "fieldScore": {"state": 1.0, "city": 1.0, "streets": [1.0], "houseNumber": 1.0}}}]}, {"items": [{"title": "1165 McKinney Ln, Pittsburgh, PA 15220-3347, United States", "id": "here:af:streetsection:k1OF1G.OTEvjxEpcM8NwCA:EAIaBDExNjUoZA", "resultType": "houseNumber", "houseNumberType": "interpolated", "address": {"label": "1165 McKinney Ln, Pittsburgh, PA 15220-3347, United States", "countryCode": "USA", "countryName": "United States", "stateCode": "PA", "state": "Pennsylvania", "county": "Allegheny", "city": "Pittsburgh", "street": "McKinney Ln", "postalCode": "15220-3347", "houseNumber": "1165"}, "position": {"lat": 40.4256, "lng": -80.04141}, "access": [{"lat": 40.42574, "lng": -80.04137}], "mapView": {"west": -80.04259, "south": 40.4247, "east": -80.04023, "north": 40.4265}, "scoring": {"queryScore": 1.0, "fieldScore": {"state": 1.0, "city": 1.0, "streets": [1.0], "houseNumber": 1.0}}}]}, {"items": [{"title": "320 N Millvale Ave, Pittsburgh, PA 15224-1262, United States", "id": "here:af:streetsection:4MHBVDrFWnOdR8z-OdLaCA:CggIBCDi-tvFAhABGgMzMjAoZA", "resultType": "houseNumber", "houseNumberType": "PA", "address": {"label": "320 N Millvale Ave, Pittsburgh, PA 15224-1262, United States", "countryCode": "USA", "countryName": "United States", "stateCode": "PA", "state": "Pennsylvania", "county": "Allegheny", "city": "Pittsburgh", "district": "Garfield", "street": "N Millvale Ave", "postalCode": "15224-1262", "houseNumber": "320"}, "position": {"lat": 40.46739, "lng": -79.94459}, "access": [{"lat": 40.46741, "lng": -79.94478}], "mapView": {"west": -79.94577, "south": 40.46649, "east": -79.94341, "north": 40.46829}, "scoring": {"queryScore": 1.0, "fieldScore": {"state": 1.0, "city": 1.0, "streets": [1.0], "houseNumber": 1.0}}}]}, {"items": [{"title": "4910 Kincaid St, Pittsburgh, PA 15224-1215, United States", "id": "here:af:streetsection:YeqPyuVzrncl6-1dLpcKAC:CgcIBCDLkqMgEAEaBDQ5MTAoZA", "resultType": "houseNumber", "houseNumberType": "PA", "address": {"label": "4910 Kincaid St, Pittsburgh, PA 15224-1215, United States", "countryCode": "USA", "countryName": "United States", "stateCode": "PA", "state": "Pennsylvania", "county": "Allegheny", "city": "Pittsburgh", "district": "Garfield", "street": "Kincaid St", "postalCode": "15224-1215", "houseNumber": "4910"}, "position": {"lat": 40.46733, "lng": -79.94417}, "access": [{"lat": 40.46745, "lng": -79.94414}], "mapView": {"west": -79.94535, "south": 40.46643, "east": -79.94299, "north": 40.46823}, "scoring": {"queryScore": 1.0, "fieldScore": {"state": 1.0, "city": 1.0, "streets": [1.0], "houseNumber": 1.0}}}]}, {"items": [{"title": "913 Beech Ave, Pittsburgh, PA 15233-1705, United States", "id": "here:af:streetsection:fxJHt9rORNTeXjFtmvHDaB:CgcIBCDRipYfEAEaAzkxMyhk", "resultType": "houseNumber", "houseNumberType": "PA", "address": {"label": "913 Beech Ave, Pittsburgh, PA 15233-1705, United States", "countryCode": "USA", "countryName": "United States", "stateCode": "PA", "state": "Pennsylvania", "county": "Allegheny", "city": "Pittsburgh", "district": "Allegheny West", "street": "Beech Ave", "postalCode": "15233-1705", "houseNumber": "913"}, "position": {"lat": 40.45249, "lng": -80.01732}, "access": [{"lat": 40.45276, "lng": -80.0174}], "mapView": {"west": -80.0185, "south": 40.45159, "east": -80.01614, "north": 40.45339}, "scoring": {"queryScore": 1.0, "fieldScore": {"state": 1.0, "city": 1.0, "streets": [1.0], "houseNumber": 1.0}}}]}, {"items": [{"title": "1100 Portland St, Pittsburgh, PA 15206-1502, United States", "id": "here:af:streetsection:-xi1IOrsSW-pcd6UqnR8aA:CgcIBCCYpKMgEAEaBDExMDAoZA", "resultType": "houseNumber", "houseNumberType": "PA", "address": {"label": "1100 Portland St, Pittsburgh, PA 15206-1502, United States", "countryCode": "USA", "countryName": "United States", "stateCode": "PA", "state": "Pennsylvania", "county": "Allegheny", "city": "Pittsburgh", "district": "Highland Park", "street": "Portland St", "postalCode": "15206-1502", "houseNumber": "1100"}, "position": {"lat": 40.47514, "lng": -79.92333}, "access": [{"lat": 40.47526, "lng": -79.92353}], "mapView": {"west": -79.92451, "south": 40.47424, "east": -79.92215, "north": 40.47604}, "scoring": {"queryScore": 1.0, "fieldScore": {"state": 1.0, "city": 1.0, "streets": [1.0], "houseNumber": 1.0}}}]}, {"items": [{"title": "2315 Jane St, Pittsburgh, PA 15203-2211, United States", "id": "here:af:streetsection:ju0yB8K9Exi5cljVqXSd8B:CgcIBCDHtaUgEAEaBDIzMTUoZA", "resultType": "houseNumber", "houseNumberType": "PA", "address": {"label": "2315 Jane St, Pittsburgh, PA 15203-2211, United States", "countryCode": "USA", "countryName": "United States", "stateCode": "PA", "state": "Pennsylvania", "county": "Allegheny", "city": "Pittsburgh", "district": "Southside Flats", "street": "Jane St", "postalCode": "15203-2211", "houseNumber": "2315"}, "position": {"lat": 40.42663, "lng": -79.97257}, "access": [{"lat": 40.42648, "lng": -79.97258}], "mapView": {"west": -79.97375, "south": 40.42573, "east": -79.97139, "north": 40.42753}, "scoring": {"queryScore": 1.0, "fieldScore": {"state": 1.0, "city": 1.0, "streets": [1.0], "houseNumber": 1.0}}}]}, {"items": [{"title": "4839 Butler St, Pittsburgh, PA 15201-2717, United States", "id": "here:af:streetsection:OPZusfbXNc3qqTZ832IvOC:CgcIBCDfvqIgEAEaBDQ4MzkoZA", "resultType": "houseNumber", "houseNumberType": "PA", "address": {"label": "4839 Butler St, Pittsburgh, PA 15201-2717, United States", "countryCode": "USA", "countryName": "United States", "stateCode": "PA", "state": "Pennsylvania", "county": "Allegheny", "city": "Pittsburgh", "district": "Central Lawrenceville", "street": "Butler St", "postalCode": "15201-2717", "houseNumber": "4839"}, "position": {"lat": 40.47709, "lng": -79.95727}, "access": [{"lat": 40.47695, "lng": -79.95701}], "mapView": {"west": -79.95845, "south": 40.47619, "east": -79.95609, "north": 40.47799}, "scoring": {"queryScore": 1.0, "fieldScore": {"state": 1.0, "city": 1.0, "streets": [1.0], "houseNumber": 1.0}}}]}, {"items": [{"title": "4218 Centre Ave, Pittsburgh, PA 15213-1402, United States", "id": "here:af:streetsection:xyNGN7vbxjXDO020X346.D:CgcIBCCi4KAgEAEaBDQyMTgoZA", "resultType": "houseNumber", "houseNumberType": "PA", "address": {"label": "4218 Centre Ave, Pittsburgh, PA 15213-1402, United States", "countryCode": "USA", "countryName": "United States", "stateCode": "PA", "state": "Pennsylvania", "county": "Allegheny", "city": "Pittsburgh", "district": "North Oakland", "street": "Centre Ave", "postalCode": "15213-1402", "houseNumber": "4218"}, "position": {"lat": 40.44863, "lng": -79.95764}, "access": [{"lat": 40.44887, "lng": -79.95785}], "mapView": {"west": -79.95882, "south": 40.44773, "east": -79.95646, "north": 40.44953}, "scoring": {"queryScore": 1.0, "fieldScore": {"state": 1.0, "city": 1.0, "streets": [1.0], "houseNumber": 1.0}}}]}, {"items": [{"title": "1006 Farragut St, Pittsburgh, PA 15206-1744, United States", "id": "here:af:streetsection:9ajQumAK4rR6jIUcHXkdJA:CgcIBCCDk6QgEAEaBDEwMDYoZA", "resultType": "houseNumber", "houseNumberType": "PA", "address": {"label": "1006 Farragut St, Pittsburgh, PA 15206-1744, United States", "countryCode": "USA", "countryName": "United States", "stateCode": "PA", "state": "Pennsylvania", "county": "Allegheny", "city": "Pittsburgh", "district": "Highland Park", "street": "Farragut St", "postalCode": "15206-1744", "houseNumber": "1006"}, "position": {"lat": 40.47276, "lng": -79.91783}, "access": [{"lat": 40.47285, "lng": -79.91818}], "mapView": {"west": -79.91901, "south": 40.47186, "east": -79.91665, "north": 40.47366}, "scoring": {"queryScore": 1.0, "fieldScore": {"state": 1.0, "city": 1.0, "streets": [1.0], "houseNumber": 1.0}}}]}, {"items": [{"title": "1014 5th Ave, Pittsburgh, PA 15219-6202, United States", "id": "here:af:streetsection:CWvSDb4oU-OTvHZP0GdW0D:CggIBCD9rKjnAhABGgQxMDE0KGQ", "resultType": "houseNumber", "houseNumberType": "PA", "address": {"label": "1014 5th Ave, Pittsburgh, PA 15219-6202, United States", "countryCode": "USA", "countryName": "United States", "stateCode": "PA", "state": "Pennsylvania", "county": "Allegheny", "city": "Pittsburgh", "district": "Bluff", "street": "5th Ave", "postalCode": "15219-6202", "houseNumber": "1014"}, "position": {"lat": 40.43852, "lng": -79.99032}, "access": [{"lat": 40.4388, "lng": -79.99031}], "mapView": {"west": -79.9915, "south": 40.43762, "east": -79.98914, "north": 40.43942}, "scoring": {"queryScore": 1.0, "fieldScore": {"state": 1.0, "city": 1.0, "streets": [1.0], "houseNumber": 1.0}}}]}, {"items": [{"title": "3921 Winshire St, Pittsburgh, PA 15212-1629, United States", "id": "here:af:streetsection:LVei0piC1SP1-57yerNgkB:CgcIBCCZs5YfEAEaBDM5MjEoZA", "resultType": "houseNumber", "houseNumberType": "PA", "address": {"label": "3921 Winshire St, Pittsburgh, PA 15212-1629, United States", "countryCode": "USA", "countryName": "United States", "stateCode": "PA", "state": "Pennsylvania", "county": "Allegheny", "city": "Pittsburgh", "district": "Brighton Heights", "street": "Winshire St", "postalCode": "15212-1629", "houseNumber": "3921"}, "position": {"lat": 40.48559, "lng": -80.03989}, "access": [{"lat": 40.48579, "lng": -80.03982}], "mapView": {"west": -80.04107, "south": 40.48469, "east": -80.03871, "north": 40.48649}, "scoring": {"queryScore": 1.0, "fieldScore": {"state": 1.0, "city": 1.0, "streets": [1.0], "houseNumber": 1.0}}}]}, {"items": [{"title": "6650 Beacon St, Pittsburgh, PA 15217-1844, United States", "id": "here:af:streetsection:wUkWEbQsApsaXrX7o768RD:CgcIBCC_ipsgEAEaBDY2NTAoZA", "resultType": "houseNumber", "houseNumberType": "PA", "address": {"label": "6650 Beacon St, Pittsburgh, PA 15217-1844, United States", "countryCode": "USA", "countryName": "United States", "stateCode": "PA", "state": "Pennsylvania", "county": "Allegheny", "city": "Pittsburgh", "district": "Squirrel Hill South", "street": "Beacon St", "postalCode": "15217-1844", "houseNumber": "6650"}, "position": {"lat": 40.4359, "lng": -79.91335}, "access": [{"lat": 40.43592, "lng": -79.91365}], "mapView": {"west": -79.91453, "south": 40.435, "east": -79.91217, "north": 40.4368}, "scoring": {"queryScore": 1.0, "fieldScore": {"state": 1.0, "city": 1.0, "streets": [1.0], "houseNumber": 1.0}}}]}, {"items": [{"title": "1127 Sheffield St, Pittsburgh, PA 15233-1515, United States", "id": "here:af:streetsection:MJhVt61mm5.tCUkiOiJVBB:CgcIBCD8vpQfEAEaBDExMjcoZA", "resultType": "houseNumber", "houseNumberType": "PA", "address": {"label": "1127 Sheffield St, Pittsburgh, PA 15233-1515, United States", "countryCode": "USA", "countryName": "United States", "stateCode": "PA", "state": "Pennsylvania", "county": "Allegheny", "city": "Pittsburgh", "district": "Manchester", "street": "Sheffield St", "postalCode": "15233-1515", "houseNumber": "1127"}, "position": {"lat": 40.45357, "lng": -80.02205}, "access": [{"lat": 40.45379, "lng": -80.02213}], "mapView": {"west": -80.02323, "south": 40.45267, "east": -80.02087, "north": 40.45447}, "scoring": {"queryScore": 1.0, "fieldScore": {"state": 1.0, "city": 1.0, "streets": [1.0], "houseNumber": 1.0}}}]}, {"items": [{"title": "810 Galveston Ave, Pittsburgh, PA 15233-1810, United States", "id": "here:af:streetsection:BDzr9Gf0b4qbLf-RP9crkB:CgcIBCC9v5YfEAEaAzgxMChk", "resultType": "houseNumber", "houseNumberType": "PA", "address": {"label": "810 Galveston Ave, Pittsburgh, PA 15233-1810, United States", "countryCode": "USA", "countryName": "United States", "stateCode": "PA", "state": "Pennsylvania", "county": "Allegheny", "city": "Pittsburgh", "district": "Allegheny West", "street": "Galveston Ave", "postalCode": "15233-1810", "houseNumber": "810"}, "position": {"lat": 40.45145, "lng": -80.01621}, "access": [{"lat": 40.45142, "lng": -80.01635}], "mapView": {"west": -80.01739, "south": 40.45055, "east": -80.01503, "north": 40.45235}, "scoring": {"queryScore": 1.0, "fieldScore": {"state": 1.0, "city": 1.0, "streets": [1.0], "houseNumber": 1.0}}}]}, {"items": [{"title": "4808 Kincaid St, Pittsburgh, PA 15224-1228, United States", "id": "here:af:streetsection:YeqPyuVzrncl6-1dLpcKAC:CgcIBCDls6MgEAEaBDQ4MDgoZA", "resultType": "houseNumber", "houseNumberType": "PA", "address": {"label": "4808 Kincaid St, Pittsburgh, PA 15224-1228, United States", "countryCode": "USA", "countryName": "United States", "stateCode": "PA", "state": "Pennsylvania", "county": "Allegheny", "city": "Pittsburgh", "district": "Garfield", "street": "Kincaid St", "postalCode": "15224-1228", "houseNumber": "4808"}, "position": {"lat": 40.46745, "lng": -79.94559}, "access": [{"lat": 40.46766, "lng": -79.94553}], "mapView": {"west": -79.94677, "south": 40.46655, "east": -79.94441, "north": 40.46835}, "scoring": {"queryScore": 1.0, "fieldScore": {"state": 1.0, "city": 1.0, "streets": [1.0], "houseNumber": 1.0}}}]}, {"items": [{"title": "301 5th Ave, Pittsburgh, PA 15222-2402, United States", "id": "here:af:streetsection:tgu07Judn8zoPfJ1HfT8AD:CgcIBCDMtuBiEAEaAzMwMShk", "resultType": "houseNumber", "houseNumberType": "PA", "address": {"label": "301 5th Ave, Pittsburgh, PA 15222-2402, United States", "countryCode": "USA", "countryName": "United States", "stateCode": "PA", "state": "Pennsylvania", "county": "Allegheny", "city": "Pittsburgh", "district": "Fifth and Forbes Corridor", "street": "5th Ave", "postalCode": "15222-2402", "houseNumber": "301"}, "position": {"lat": 40.44054, "lng": -79.99945}, "access": [{"lat": 40.44041, "lng": -79.99953}], "mapView": {"west": -80.00063, "south": 40.43964, "east": -79.99827, "north": 40.44144}, "scoring": {"queryScore": 1.0, "fieldScore": {"state": 1.0, "city": 1.0, "streets": [1.0], "houseNumber": 1.0}}}]}, {"items": [{"title": "200 Cowan St, Pittsburgh, PA 15211-1959, United States", "id": "here:af:streetsection:m6ktBh8NcKifoIQ6ffHD0D:EAIaAzIwMChk", "resultType": "houseNumber", "houseNumberType": "interpolated", "address": {"label": "200 Cowan St, Pittsburgh, PA 15211-1959, United States", "countryCode": "USA", "countryName": "United States", "stateCode": "PA", "state": "Pennsylvania", "county": "Allegheny", "city": "Pittsburgh", "district": "Mount Washington", "street": "Cowan St", "postalCode": "15211-1959", "houseNumber": "200"}, "position": {"lat": 40.42756, "lng": -80.01125}, "access": [{"lat": 40.42743, "lng": -80.01125}], "mapView": {"west": -80.01243, "south": 40.42666, "east": -80.01007, "north": 40.42846}, "scoring": {"queryScore": 1.0, "fieldScore": {"state": 1.0, "city": 1.0, "streets": [1.0], "houseNumber": 1.0}}}]}, {"items": [{"title": "803 Clarissa St, Pittsburgh, PA 15219-5026, United States", "id": "here:af:streetsection:VHM20Iu6GOvRoEASHICAVB:CgcIBCCN1aAgEAEaAzgwMyhk", "resultType": "houseNumber", "houseNumberType": "PA", "address": {"label": "803 Clarissa St, Pittsburgh, PA 15219-5026, United States", "countryCode": "USA", "countryName": "United States", "stateCode": "PA", "state": "Pennsylvania", "county": "Allegheny", "city": "Pittsburgh", "district": "Upper Hill", "street": "Clarissa St", "postalCode": "15219-5026", "houseNumber": "803"}, "position": {"lat": 40.45328, "lng": -79.95956}, "access": [{"lat": 40.4531, "lng": -79.95967}], "mapView": {"west": -79.96074, "south": 40.45238, "east": -79.95838, "north": 40.45418}, "scoring": {"queryScore": 1.0, "fieldScore": {"state": 1.0, "city": 1.0, "streets": [1.0], "houseNumber": 1.0}}}]}, {"items": [{"title": "1406 Arch St, Pittsburgh, PA 15212-4404, United States", "id": "here:af:streetsection:gXrES15ard9uSviZNTiYWD:CgcIBCCltJQfEAEaBDE0MDYoZA", "resultType": "houseNumber", "houseNumberType": "PA", "address": {"label": "1406 Arch St, Pittsburgh, PA 15212-4404, United States", "countryCode": "USA", "countryName": "United States", "stateCode": "PA", "state": "Pennsylvania", "county": "Allegheny", "city": "Pittsburgh", "district": "Central Northside", "street": "Arch St", "postalCode": "15212-4404", "houseNumber": "1406"}, "position": {"lat": 40.45759, "lng": -80.00913}, "access": [{"lat": 40.45753, "lng": -80.00944}], "mapView": {"west": -80.01031, "south": 40.45669, "east": -80.00795, "north": 40.45849}, "scoring": {"queryScore": 1.0, "fieldScore": {"state": 1.0, "city": 1.0, "streets": [1.0], "houseNumber": 1.0}}}]}, {"items": [{"title": "1202 Goodman St, Pittsburgh, PA 15218-1106, United States", "id": "here:af:streetsection:d2gJPFFoSdEdcez2SH69fA:CgcIBCCbtIUkEAEaBDEyMDIoZA", "resultType": "houseNumber", "houseNumberType": "PA", "address": {"label": "1202 Goodman St, Pittsburgh, PA 15218-1106, United States", "countryCode": "USA", "countryName": "United States", "stateCode": "PA", "state": "Pennsylvania", "county": "Allegheny", "city": "Pittsburgh", "district": "Swisshelm Park", "street": "Goodman St", "postalCode": "15218-1106", "houseNumber": "1202"}, "position": {"lat": 40.41865, "lng": -79.90393}, "access": [{"lat": 40.41887, "lng": -79.90395}], "mapView": {"west": -79.90511, "south": 40.41775, "east": -79.90275, "north": 40.41955}, "scoring": {"queryScore": 1.0, "fieldScore": {"state": 1.0, "city": 1.0, "streets": [1.0], "houseNumber": 1.0}}}]}, {"items": [{"title": "1334 N Sheridan Ave, Pittsburgh, PA 15206-1760, United States", "id": "here:af:streetsection:rosGiWM0SJOwKcpo3Yb9zC:CgcIBCDUj6MgEAEaBDEzMzQoZA", "resultType": "houseNumber", "houseNumberType": "PA", "address": {"label": "1334 N Sheridan Ave, Pittsburgh, PA 15206-1760, United States", "countryCode": "USA", "countryName": "United States", "stateCode": "PA", "state": "Pennsylvania", "county": "Allegheny", "city": "Pittsburgh", "district": "Highland Park", "street": "N Sheridan Ave", "postalCode": "15206-1760", "houseNumber": "1334"}, "position": {"lat": 40.47652, "lng": -79.91506}, "access": [{"lat": 40.47658, "lng": -79.91532}], "mapView": {"west": -79.91624, "south": 40.47562, "east": -79.91388, "north": 40.47742}, "scoring": {"queryScore": 1.0, "fieldScore": {"state": 1.0, "city": 1.0, "streets": [1.0], "houseNumber": 1.0}}}]}, {"items": [{"title": "815 Morewood Ave, Pittsburgh, PA 15213-2911, United States", "id": "here:af:streetsection:hGyAvfoFPVzRWd7GkslFVD:CgcIBCDw_6AgEAEaAzgxNShk", "resultType": "houseNumber", "houseNumberType": "PA", "address": {"label": "815 Morewood Ave, Pittsburgh, PA 15213-2911, United States", "countryCode": "USA", "countryName": "United States", "stateCode": "PA", "state": "Pennsylvania", "county": "Allegheny", "city": "Pittsburgh", "district": "Shadyside", "street": "Morewood Ave", "postalCode": "15213-2911", "houseNumber": "815"}, "position": {"lat": 40.44854, "lng": -79.94234}, "access": [{"lat": 40.44851, "lng": -79.94259}], "mapView": {"west": -79.94352, "south": 40.44764, "east": -79.94116, "north": 40.44944}, "scoring": {"queryScore": 1.0, "fieldScore": {"state": 1.0, "city": 1.0, "streets": [1.0], "houseNumber": 1.0}}}]}, {"items": [{"title": "519 Coyne Ter, Pittsburgh, PA 15207-1128, United States", "id": "here:af:streetsection:2xPH7z-qIZ66DARG9GmlzA:CgcIBCCo55sgEAEaAzUxOShk", "resultType": "houseNumber", "houseNumberType": "PA", "address": {"label": "519 Coyne Ter, Pittsburgh, PA 15207-1128, United States", "countryCode": "USA", "countryName": "United States", "stateCode": "PA", "state": "Pennsylvania", "county": "Allegheny", "city": "Pittsburgh", "district": "Greenfield", "street": "Coyne Ter", "postalCode": "15207-1128", "houseNumber": "519"}, "position": {"lat": 40.42425, "lng": -79.94119}, "access": [{"lat": 40.42404, "lng": -79.94119}], "mapView": {"west": -79.94237, "south": 40.42335, "east": -79.94001, "north": 40.42515}, "scoring": {"queryScore": 0.99, "fieldScore": {"state": 1.0, "city": 1.0, "streets": [0.9], "houseNumber": 1.0}}}, {"title": "519 E Pittsburgh St, Greensburg, PA 15601-2605, United States", "id": "here:af:streetsection:OhzAtsrj8ieyUwb4Jc1iAB:CgcIBCD28f42EAEaAzUxOShk", "resultType": "houseNumber", "houseNumberType": "PA", "address": {"label": "519 E Pittsburgh St, Greensburg, PA 15601-2605, United States", "countryCode": "USA", "countryName": "United States", "stateCode": "PA", "state": "Pennsylvania", "county": "Westmoreland", "city": "Greensburg", "street": "E Pittsburgh St", "postalCode": "15601-2605", "houseNumber": "519"}, "position": {"lat": 40.3034, "lng": -79.53393}, "access": [{"lat": 40.30316, "lng": -79.53395}], "mapView": {"west": -79.53511, "south": 40.3025, "east": -79.53275, "north": 40.3043}, "scoring": {"queryScore": 0.8, "fieldScore": {"state": 1.0, "streets": [0.85], "houseNumber": 1.0}}}]}, {"items": [{"title": "354 44th St, Pittsburgh, PA 15201-1762, United States", "id": "here:af:streetsection:IHU6kXfem3eZaTV1HRV5DD:CgcIBCD8t6IgEAEaAzM1NChk", "resultType": "houseNumber", "houseNumberType": "PA", "address": {"label": "354 44th St, Pittsburgh, PA 15201-1762, United States", "countryCode": "USA", "countryName": "United States", "stateCode": "PA", "state": "Pennsylvania", "county": "Allegheny", "city": "Pittsburgh", "district": "Central Lawrenceville", "street": "44th St", "postalCode": "15201-1762", "houseNumber": "354"}, "position": {"lat": 40.46886, "lng": -79.95645}, "access": [{"lat": 40.46896, "lng": -79.95637}], "mapView": {"west": -79.95763, "south": 40.46796, "east": -79.95527, "north": 40.46976}, "scoring": {"queryScore": 1.0, "fieldScore": {"state": 1.0, "city": 1.0, "streets": [1.0], "houseNumber": 1.0}}}]}, {"items": [{"title": "500 W North Ave, Pittsburgh, PA 15212-4603, United States", "id": "here:af:streetsection:plceCeQUGUiWDzNzffipCC:CgcIBCDi2JQfEAEaAzUwMChk", "resultType": "houseNumber", "houseNumberType": "PA", "address": {"label": "500 W North Ave, Pittsburgh, PA 15212-4603, United States", "countryCode": "USA", "countryName": "United States", "stateCode": "PA", "state": "Pennsylvania", "county": "Allegheny", "city": "Pittsburgh", "district": "Central Northside", "street": "W North Ave", "postalCode": "15212-4603", "houseNumber": "500"}, "position": {"lat": 40.45468, "lng": -80.01181}, "access": [{"lat": 40.4545, "lng": -80.01176}], "mapView": {"west": -80.01299, "south": 40.45378, "east": -80.01063, "north": 40.45558}, "scoring": {"queryScore": 1.0, "fieldScore": {"state": 1.0, "city": 1.0, "streets": [1.0], "houseNumber": 1.0}}}]}, {"items": [{"title": "1400 Locust St, Pittsburgh, PA 15219-5114, United States", "id": "here:af:streetsection:78lMNUhmsdbe0Kd-CPOPEC:CgcIBCCpnbQfEAEaBDE0MDAoZA", "resultType": "houseNumber", "houseNumberType": "PA", "address": {"label": "1400 Locust St, Pittsburgh, PA 15219-5114, United States", "countryCode": "USA", "countryName": "United States", "stateCode": "PA", "state": "Pennsylvania", "county": "Allegheny", "city": "Pittsburgh", "district": "Bluff", "street": "Locust St", "postalCode": "15219-5114", "houseNumber": "1400"}, "position": {"lat": 40.43608, "lng": -79.98537}, "access": [{"lat": 40.4369, "lng": -79.98623}], "mapView": {"west": -79.98675, "south": 40.43503, "east": -79.98399, "north": 40.43713}, "scoring": {"queryScore": 1.0, "fieldScore": {"state": 1.0, "city": 1.0, "streets": [1.0], "houseNumber": 1.0}}}]}, {"items": [{"title": "1200 Palo Alto St, Pittsburgh, PA 15212-4515, United States", "id": "here:af:streetsection:qoqwKzWQvQi2NX28GZPt0D:CgcIBCC_yJkfEAEaBDEyMDAoZA", "resultType": "houseNumber", "houseNumberType": "PA", "address": {"label": "1200 Palo Alto St, Pittsburgh, PA 15212-4515, United States", "countryCode": "USA", "countryName": "United States", "stateCode": "PA", "state": "Pennsylvania", "county": "Allegheny", "city": "Pittsburgh", "district": "Central Northside", "street": "Palo Alto St", "postalCode": "15212-4515", "houseNumber": "1200"}, "position": {"lat": 40.4554, "lng": -80.01061}, "access": [{"lat": 40.45532, "lng": -80.01079}], "mapView": {"west": -80.01179, "south": 40.4545, "east": -80.00943, "north": 40.4563}, "scoring": {"queryScore": 1.0, "fieldScore": {"state": 1.0, "city": 1.0, "streets": [1.0], "houseNumber": 1.0}}}]}, {"items": [{"title": "424 E End Ave, Pittsburgh, PA 15221-3127, United States", "id": "here:af:streetsection:-mYoE8J7k.4tVY8n-URXgD:EAIaAzQyNChk", "resultType": "houseNumber", "houseNumberType": "interpolated", "address": {"label": "424 E End Ave, Pittsburgh, PA 15221-3127, United States", "countryCode": "USA", "countryName": "United States", "stateCode": "PA", "state": "Pennsylvania", "county": "Allegheny", "city": "Pittsburgh", "district": "Point Breeze", "street": "E End Ave", "postalCode": "15221-3127", "houseNumber": "424"}, "position": {"lat": 40.44368, "lng": -79.89539}, "access": [{"lat": 40.44364, "lng": -79.89522}], "mapView": {"west": -79.89657, "south": 40.44278, "east": -79.89421, "north": 40.44458}, "scoring": {"queryScore": 1.0, "fieldScore": {"state": 1.0, "city": 1.0, "streets": [1.0], "houseNumber": 1.0}}}]}, {"items": [{"title": "730 Wills St, Pittsburgh, PA 15211-2261, United States", "id": "here:af:streetsection:SQjg9Vmlav1ha2Bj2vx0uA:CgcIBCCl6p8gEAEaAzczMChk", "resultType": "houseNumber", "houseNumberType": "PA", "address": {"label": "730 Wills St, Pittsburgh, PA 15211-2261, United States", "countryCode": "USA", "countryName": "United States", "stateCode": "PA", "state": "Pennsylvania", "county": "Allegheny", "city": "Pittsburgh", "district": "Mount Washington", "street": "Wills St", "postalCode": "15211-2261", "houseNumber": "730"}, "position": {"lat": 40.41905, "lng": -80.01282}, "access": [{"lat": 40.41901, "lng": -80.01257}], "mapView": {"west": -80.014, "south": 40.41815, "east": -80.01164, "north": 40.41995}, "scoring": {"queryScore": 1.0, "fieldScore": {"state": 1.0, "city": 1.0, "streets": [1.0], "houseNumber": 1.0}}}]}, {"items": [{"title": "621 Bellefonte St, Pittsburgh, PA 15232-1801, United States", "id": "here:af:streetsection:VEJ3MNzuJ.Z.DIAlSAVJpA:CgcIBCCC9qEgEAEaAzYyMShk", "resultType": "houseNumber", "houseNumberType": "PA", "address": {"label": "621 Bellefonte St, Pittsburgh, PA 15232-1801, United States", "countryCode": "USA", "countryName": "United States", "stateCode": "PA", "state": "Pennsylvania", "county": "Allegheny", "city": "Pittsburgh", "district": "Shadyside", "street": "Bellefonte St", "postalCode": "15232-1801", "houseNumber": "621"}, "position": {"lat": 40.45284, "lng": -79.93453}, "access": [{"lat": 40.45276, "lng": -79.93479}], "mapView": {"west": -79.93571, "south": 40.45194, "east": -79.93335, "north": 40.45374}, "scoring": {"queryScore": 1.0, "fieldScore": {"state": 1.0, "city": 1.0, "streets": [1.0], "houseNumber": 1.0}}}]}, {"items": [{"title": "160 38th St, Pittsburgh, PA 15201-3200, United States", "id": "here:af:streetsection:6P730eTAlbX5hG9wZnSL6C:CgcIBCCM66AgEAEaAzE2MChk", "resultType": "houseNumber", "houseNumberType": "PA", "address": {"label": "160 38th St, Pittsburgh, PA 15201-3200, United States", "countryCode": "USA", "countryName": "United States", "stateCode": "PA", "state": "Pennsylvania", "county": "Allegheny", "city": "Pittsburgh", "district": "Lower Lawrenceville", "street": "38th St", "postalCode": "15201-3200", "houseNumber": "160"}, "position": {"lat": 40.46792, "lng": -79.96579}, "access": [{"lat": 40.468, "lng": -79.96571}], "mapView": {"west": -79.96697, "south": 40.46702, "east": -79.96461, "north": 40.46882}, "scoring": {"queryScore": 1.0, "fieldScore": {"state": 1.0, "city": 1.0, "streets": [1.0], "houseNumber": 1.0}}}]}, {"items": [{"title": "500 Grant St, Pittsburgh, PA 15219-2500, United States", "id": "here:af:streetsection:KDZAsTN8jdMyjz6zyEGzRC:CgcIBCCEgqAgEAEaAzUwMChk", "resultType": "houseNumber", "houseNumberType": "PA", "address": {"label": "500 Grant St, Pittsburgh, PA 15219-2500, United States", "countryCode": "USA", "countryName": "United States", "stateCode": "PA", "state": "Pennsylvania", "county": "Allegheny", "city": "Pittsburgh", "district": "Grant Street", "street": "Grant St", "postalCode": "15219-2500", "houseNumber": "500"}, "position": {"lat": 40.43961, "lng": -79.99596}, "access": [{"lat": 40.4398, "lng": -79.99648}], "mapView": {"west": -79.99714, "south": 40.43871, "east": -79.99478, "north": 40.44051}, "scoring": {"queryScore": 1.0, "fieldScore": {"state": 1.0, "city": 1.0, "streets": [1.0], "houseNumber": 1.0}}}]}, {"items": [{"title": "603 Stanwix St, Pittsburgh, PA 15222-1241, United States", "id": "here:af:streetsection:HdAkT1eyKSufgze.VSdrNA:CggIBCD6rrTUAhABGgM2MDMoZA", "resultType": "houseNumber", "houseNumberType": "PA", "address": {"label": "603 Stanwix St, Pittsburgh, PA 15222-1241, United States", "countryCode": "USA", "countryName": "United States", "stateCode": "PA", "state": "Pennsylvania", "county": "Allegheny", "city": "Pittsburgh", "district": "Cultural District", "street": "Stanwix St", "postalCode": "15222-1241", "houseNumber": "603"}, "position": {"lat": 40.44223, "lng": -80.00459}, "access": [{"lat": 40.44234, "lng": -80.00416}], "mapView": {"west": -80.00577, "south": 40.44133, "east": -80.00341, "north": 40.44313}, "scoring": {"queryScore": 1.0, "fieldScore": {"state": 1.0, "city": 1.0, "streets": [1.0], "houseNumber": 1.0}}}]}, {"items": [{"title": "3030 Wiggins St, Pittsburgh, PA 15219-3766, United States", "id": "here:af:streetsection:9FAeZJzl-svCjE1T7d36vA:CgcIBCCUoKEgEAEaBDMwMzAoZA", "resultType": "houseNumber", "houseNumberType": "PA", "address": {"label": "3030 Wiggins St, Pittsburgh, PA 15219-3766, United States", "countryCode": "USA", "countryName": "United States", "stateCode": "PA", "state": "Pennsylvania", "county": "Allegheny", "city": "Pittsburgh", "district": "Polish Hill", "street": "Wiggins St", "postalCode": "15219-3766", "houseNumber": "3030"}, "position": {"lat": 40.45732, "lng": -79.96898}, "access": [{"lat": 40.45747, "lng": -79.96899}], "mapView": {"west": -79.97016, "south": 40.45642, "east": -79.9678, "north": 40.45822}, "scoring": {"queryScore": 1.0, "fieldScore": {"state": 1.0, "city": 1.0, "streets": [1.0], "houseNumber": 1.0}}}]}, {"items": [{"title": "600 5th Ave, Pittsburgh, PA 15219-3010, United States", "id": "here:af:streetsection:KgygKIpgeBJArxhvuK.CpC:CgcIBCCi8YFxEAEaAzYwMChk", "resultType": "houseNumber", "houseNumberType": "PA", "address": {"label": "600 5th Ave, Pittsburgh, PA 15219-3010, United States", "countryCode": "USA", "countryName": "United States", "stateCode": "PA", "state": "Pennsylvania", "county": "Allegheny", "city": "Pittsburgh", "district": "Grant Street", "street": "5th Ave", "postalCode": "15219-3010", "houseNumber": "600"}, "position": {"lat": 40.43866, "lng": -79.99434}, "access": [{"lat": 40.43891, "lng": -79.99467}], "mapView": {"west": -79.99552, "south": 40.43776, "east": -79.99316, "north": 40.43956}, "scoring": {"queryScore": 1.0, "fieldScore": {"state": 1.0, "city": 1.0, "streets": [1.0], "houseNumber": 1.0}}}]}, {"items": [{"title": "1141 Goodman St, Pittsburgh, PA 15218-1116, United States", "id": "here:af:streetsection:d2gJPFFoSdEdcez2SH69fA:CgcIBCD_hJwgEAEaBDExNDEoZA", "resultType": "houseNumber", "houseNumberType": "PA", "address": {"label": "1141 Goodman St, Pittsburgh, PA 15218-1116, United States", "countryCode": "USA", "countryName": "United States", "stateCode": "PA", "state": "Pennsylvania", "county": "Allegheny", "city": "Pittsburgh", "district": "Swisshelm Park", "street": "Goodman St", "postalCode": "15218-1116", "houseNumber": "1141"}, "position": {"lat": 40.41898, "lng": -79.90474}, "access": [{"lat": 40.41883, "lng": -79.90473}], "mapView": {"west": -79.90592, "south": 40.41808, "east": -79.90356, "north": 40.41988}, "scoring": {"queryScore": 1.0, "fieldScore": {"state": 1.0, "city": 1.0, "streets": [1.0], "houseNumber": 1.0}}}]}, {"items": [{"title": "6 PPG Pl, Pittsburgh, PA 15222-5406, United States", "id": "here:af:streetsection:nKFoTus3m7Tap8W2uGuuOB:EAIaATYoZA", "resultType": "houseNumber", "houseNumberType": "interpolated", "address": {"label": "6 PPG Pl, Pittsburgh, PA 15222-5406, United States", "countryCode": "USA", "countryName": "United States", "stateCode": "PA", "state": "Pennsylvania", "county": "Allegheny", "city": "Pittsburgh", "district": "Fifth and Forbes Corridor", "street": "PPG Pl", "postalCode": "15222-5406", "houseNumber": "6"}, "position": {"lat": 40.43973, "lng": -80.00348}, "access": [{"lat": 40.43961, "lng": -80.00355}], "mapView": {"west": -80.00466, "south": 40.43883, "east": -80.0023, "north": 40.44063}, "scoring": {"queryScore": 1.0, "fieldScore": {"state": 1.0, "city": 1.0, "streets": [1.0], "houseNumber": 1.0}}}]}, {"items": [{"title": "1679 Biltmore Ln, Pittsburgh, PA 15217-4506, United States", "id": "here:af:streetsection:10G5CwtrC6QNRg.C4Dz.MD:CggIBCDz59aUAhABGgQxNjc5KGQ", "resultType": "houseNumber", "houseNumberType": "PA", "address": {"label": "1679 Biltmore Ln, Pittsburgh, PA 15217-4506, United States", "countryCode": "USA", "countryName": "United States", "stateCode": "PA", "state": "Pennsylvania", "county": "Allegheny", "city": "Pittsburgh", "district": "Squirrel Hill South", "street": "Biltmore Ln", "postalCode": "15217-4506", "houseNumber": "1679"}, "position": {"lat": 40.41791, "lng": -79.92101}, "access": [{"lat": 40.41792, "lng": -79.92077}], "mapView": {"west": -79.92219, "south": 40.41701, "east": -79.91983, "north": 40.41881}, "scoring": {"queryScore": 1.0, "fieldScore": {"state": 1.0, "city": 1.0, "streets": [1.0], "houseNumber": 1.0}}}]}, {"items": [{"title": "1 Allegheny Ctr, Pittsburgh, PA 15212-5302, United States", "id": "here:af:streetsection:0i.pyCU.nRuVvO-j2A1dlA:CgcIBCD4yJYfEAEaATEoZA", "resultType": "houseNumber", "houseNumberType": "PA", "address": {"label": "1 Allegheny Ctr, Pittsburgh, PA 15212-5302, United States", "countryCode": "USA", "countryName": "United States", "stateCode": "PA", "state": "Pennsylvania", "county": "Allegheny", "city": "Pittsburgh", "district": "Allegheny Center", "street": "Allegheny Ctr", "postalCode": "15212-5302", "houseNumber": "1"}, "position": {"lat": 40.4518, "lng": -80.00583}, "access": [{"lat": 40.45177, "lng": -80.00641}], "mapView": {"west": -80.00701, "south": 40.4509, "east": -80.00465, "north": 40.4527}, "scoring": {"queryScore": 1.0, "fieldScore": {"state": 1.0, "city": 1.0, "streets": [1.0], "houseNumber": 1.0}}}]}, {"items": [{"title": "1605 Biltmore Ln, Pittsburgh, PA 15217-4506, United States", "id": "here:af:streetsection:10G5CwtrC6QNRg.C4Dz.MD:EAIaBDE2MDUoZA", "resultType": "houseNumber", "houseNumberType": "interpolated", "address": {"label": "1605 Biltmore Ln, Pittsburgh, PA 15217-4506, United States", "countryCode": "USA", "countryName": "United States", "stateCode": "PA", "state": "Pennsylvania", "county": "Allegheny", "city": "Pittsburgh", "district": "Squirrel Hill South", "street": "Biltmore Ln", "postalCode": "15217-4506", "houseNumber": "1605"}, "position": {"lat": 40.41895, "lng": -79.92033}, "access": [{"lat": 40.41882, "lng": -79.92029}], "mapView": {"west": -79.92151, "south": 40.41805, "east": -79.91915, "north": 40.41985}, "scoring": {"queryScore": 1.0, "fieldScore": {"state": 1.0, "city": 1.0, "streets": [1.0], "houseNumber": 1.0}}}]}, {"items": [{"title": "1647 Overton Ln, Pittsburgh, PA 15217-3507, United States", "id": "here:af:streetsection:prStsTcwIucG10Y9VEIZ5D:CggIBCDDwtaUAhABGgQxNjQ3KGQ", "resultType": "houseNumber", "houseNumberType": "PA", "address": {"label": "1647 Overton Ln, Pittsburgh, PA 15217-3507, United States", "countryCode": "USA", "countryName": "United States", "stateCode": "PA", "state": "Pennsylvania", "county": "Allegheny", "city": "Pittsburgh", "district": "Squirrel Hill South", "street": "Overton Ln", "postalCode": "15217-3507", "houseNumber": "1647"}, "position": {"lat": 40.41814, "lng": -79.9196}, "access": [{"lat": 40.41792, "lng": -79.9195}], "mapView": {"west": -79.92078, "south": 40.41724, "east": -79.91842, "north": 40.41904}, "scoring": {"queryScore": 1.0, "fieldScore": {"state": 1.0, "city": 1.0, "streets": [1.0], "houseNumber": 1.0}}}]}, {"items": [{"title": "210 6th Ave, Pittsburgh, PA 15222-2600, United States", "id": "here:af:streetsection:xNlLPpUjnOtNDLQrCuJG5A:CgcIBCCF858gEAEaAzIxMChk", "resultType": "houseNumber", "houseNumberType": "PA", "address": {"label": "210 6th Ave, Pittsburgh, PA 15222-2600, United States", "countryCode": "USA", "countryName": "United States", "stateCode": "PA", "state": "Pennsylvania", "county": "Allegheny", "city": "Pittsburgh", "district": "Fifth and Forbes Corridor", "street": "6th Ave", "postalCode": "15222-2600", "houseNumber": "210"}, "position": {"lat": 40.44197, "lng": -80.00012}, "access": [{"lat": 40.44221, "lng": -79.99976}], "mapView": {"west": -80.0013, "south": 40.44107, "east": -79.99894, "north": 40.44287}, "scoring": {"queryScore": 1.0, "fieldScore": {"state": 1.0, "city": 1.0, "streets": [1.0], "houseNumber": 1.0}}}, {"title": "210 6th Ave, Pittsburgh, PA 15229-1261, United States", "id": "here:af:streetsection:eufwRTwrQSgfhQ.96p7eUA:CgcIBCDp-akgEAEaAzIxMChk", "resultType": "houseNumber", "houseNumberType": "PA", "address": {"label": "210 6th Ave, Pittsburgh, PA 15229-1261, United States", "countryCode": "USA", "countryName": "United States", "stateCode": "PA", "state": "Pennsylvania", "county": "Allegheny", "city": "Pittsburgh", "street": "6th Ave", "postalCode": "15229-1261", "houseNumber": "210"}, "position": {"lat": 40.52973, "lng": -80.02115}, "access": [{"lat": 40.52962, "lng": -80.02128}], "mapView": {"west": -80.02233, "south": 40.52883, "east": -80.01997, "north": 40.53063}, "scoring": {"queryScore": 1.0, "fieldScore": {"state": 1.0, "city": 1.0, "streets": [1.0], "houseNumber": 1.0}}}]}, {"items": [{"title": "5607 Baum Blvd, Pittsburgh, PA 15206-3701, United States", "id": "here:af:streetsection:Rm-Ha7G47izE1m30sXWHVC:CgcIBCDCo6QgEAEaBDU2MDcoZA", "resultType": "houseNumber", "houseNumberType": "PA", "address": {"label": "5607 Baum Blvd, Pittsburgh, PA 15206-3701, United States", "countryCode": "USA", "countryName": "United States", "stateCode": "PA", "state": "Pennsylvania", "county": "Allegheny", "city": "Pittsburgh", "district": "Friendship", "street": "Baum Blvd", "postalCode": "15206-3701", "houseNumber": "5607"}, "position": {"lat": 40.45816, "lng": -79.9354}, "access": [{"lat": 40.45791, "lng": -79.93528}], "mapView": {"west": -79.93658, "south": 40.45726, "east": -79.93422, "north": 40.45906}, "scoring": {"queryScore": 1.0, "fieldScore": {"state": 1.0, "city": 1.0, "streets": [1.0], "houseNumber": 1.0}}}]}, {"items": [{"title": "1215 Juniata St, Pittsburgh, PA 15233-1214, United States", "id": "here:af:streetsection:uT1LH092YXaV-D.awB9MAA:CgcIBCDLspQfEAEaBDEyMTUoZA", "resultType": "houseNumber", "houseNumberType": "PA", "address": {"label": "1215 Juniata St, Pittsburgh, PA 15233-1214, United States", "countryCode": "USA", "countryName": "United States", "stateCode": "PA", "state": "Pennsylvania", "county": "Allegheny", "city": "Pittsburgh", "district": "Manchester", "street": "Juniata St", "postalCode": "15233-1214", "houseNumber": "1215"}, "position": {"lat": 40.45723, "lng": -80.02392}, "access": [{"lat": 40.4574, "lng": -80.02395}], "mapView": {"west": -80.0251, "south": 40.45633, "east": -80.02274, "north": 40.45813}, "scoring": {"queryScore": 1.0, "fieldScore": {"state": 1.0, "city": 1.0, "streets": [1.0], "houseNumber": 1.0}}}]}, {"items": [{"title": "1207 Sandusky St, Pittsburgh, PA 15212-4729, United States", "id": "here:af:streetsection:MF8MQF1ZYBQJEySyX.URsA:CgcIBCDgmJsfEAEaBDEyMDcoZA", "resultType": "houseNumber", "houseNumberType": "PA", "address": {"label": "1207 Sandusky St, Pittsburgh, PA 15212-4729, United States", "countryCode": "USA", "countryName": "United States", "stateCode": "PA", "state": "Pennsylvania", "county": "Allegheny", "city": "Pittsburgh", "district": "Central Northside", "street": "Sandusky St", "postalCode": "15212-4729", "houseNumber": "1207"}, "position": {"lat": 40.45638, "lng": -80.00497}, "access": [{"lat": 40.45644, "lng": -80.00472}], "mapView": {"west": -80.00615, "south": 40.45548, "east": -80.00379, "north": 40.45728}, "scoring": {"queryScore": 1.0, "fieldScore": {"state": 1.0, "city": 1.0, "streets": [1.0], "houseNumber": 1.0}}}]}, {"items": [{"title": "305 Ophelia St, Pittsburgh, PA 15213-4225, United States", "id": "here:af:streetsection:KNBD9p0rSCKIG7vTZnEmwD:CggIBCDT48aLAxABGgMzMDUoZA", "resultType": "houseNumber", "houseNumberType": "PA", "address": {"label": "305 Ophelia St, Pittsburgh, PA 15213-4225, United States", "countryCode": "USA", "countryName": "United States", "stateCode": "PA", "state": "Pennsylvania", "county": "Allegheny", "city": "Pittsburgh", "district": "South Oakland", "street": "Ophelia St", "postalCode": "15213-4225", "houseNumber": "305"}, "position": {"lat": 40.43529, "lng": -79.96286}, "access": [{"lat": 40.43505, "lng": -79.96302}], "mapView": {"west": -79.96404, "south": 40.43439, "east": -79.96168, "north": 40.43619}, "scoring": {"queryScore": 1.0, "fieldScore": {"state": 1.0, "city": 1.0, "streets": [1.0], "houseNumber": 1.0}}}]}, {"items": [{"title": "2835 Beaver Ave, Pittsburgh, PA 15233-1003, United States", "id": "here:af:streetsection:FU23CL.zR9jlFl0MPnKDRC:CgcIBCDS05QfEAEaBDI4MzUoZA", "resultType": "houseNumber", "houseNumberType": "PA", "address": {"label": "2835 Beaver Ave, Pittsburgh, PA 15233-1003, United States", "countryCode": "USA", "countryName": "United States", "stateCode": "PA", "state": "Pennsylvania", "county": "Allegheny", "city": "Pittsburgh", "district": "Marshall-Shadeland", "street": "Beaver Ave", "postalCode": "15233-1003", "houseNumber": "2835"}, "position": {"lat": 40.46618, "lng": -80.03737}, "access": [{"lat": 40.46643, "lng": -80.03666}], "mapView": {"west": -80.03855, "south": 40.46528, "east": -80.03619, "north": 40.46708}, "scoring": {"queryScore": 1.0, "fieldScore": {"state": 1.0, "city": 1.0, "streets": [1.0], "houseNumber": 1.0}}}]}, {"items": [{"title": "2235 Mary St, Pittsburgh, PA 15203-2222, United States", "id": "here:af:streetsection:8hon2A2Pi.LzrlejkgbEmC:CgcIBCCdzJ0gEAEaBDIyMzUoZA", "resultType": "houseNumber", "houseNumberType": "PA", "address": {"label": "2235 Mary St, Pittsburgh, PA 15203-2222, United States", "countryCode": "USA", "countryName": "United States", "stateCode": "PA", "state": "Pennsylvania", "county": "Allegheny", "city": "Pittsburgh", "district": "Southside Flats", "street": "Mary St", "postalCode": "15203-2222", "houseNumber": "2235"}, "position": {"lat": 40.42589, "lng": -79.9736}, "access": [{"lat": 40.42563, "lng": -79.97362}], "mapView": {"west": -79.97478, "south": 40.42499, "east": -79.97242, "north": 40.42679}, "scoring": {"queryScore": 1.0, "fieldScore": {"state": 1.0, "city": 1.0, "streets": [1.0], "houseNumber": 1.0}}}]}, {"items": [{"title": "3612 Mintwood St, Pittsburgh, PA 15201-1331, United States", "id": "here:af:streetsection:uvFLB.yjnuZ.yWwexLCNeB:CgcIBCCd9KAgEAEaBDM2MTIoZA", "resultType": "houseNumber", "houseNumberType": "PA", "address": {"label": "3612 Mintwood St, Pittsburgh, PA 15201-1331, United States", "countryCode": "USA", "countryName": "United States", "stateCode": "PA", "state": "Pennsylvania", "county": "Allegheny", "city": "Pittsburgh", "district": "Lower Lawrenceville", "street": "Mintwood St", "postalCode": "15201-1331", "houseNumber": "3612"}, "position": {"lat": 40.46318, "lng": -79.9636}, "access": [{"lat": 40.46337, "lng": -79.96363}], "mapView": {"west": -79.96478, "south": 40.46228, "east": -79.96242, "north": 40.46408}, "scoring": {"queryScore": 1.0, "fieldScore": {"state": 1.0, "city": 1.0, "streets": [1.0], "houseNumber": 1.0}}}]}, {"items": [{"title": "801 N Negley Ave, Pittsburgh, PA 15206-1560, United States", "id": "here:af:streetsection:HB9gmi29GbbXORC57UIM6B:CgcIBCC2pqQgEAEaAzgwMShk", "resultType": "houseNumber", "houseNumberType": "PA", "address": {"label": "801 N Negley Ave, Pittsburgh, PA 15206-1560, United States", "countryCode": "USA", "countryName": "United States", "stateCode": "PA", "state": "Pennsylvania", "county": "Allegheny", "city": "Pittsburgh", "district": "Highland Park", "street": "N Negley Ave", "postalCode": "15206-1560", "houseNumber": "801"}, "position": {"lat": 40.47192, "lng": -79.92652}, "access": [{"lat": 40.47177, "lng": -79.92616}], "mapView": {"west": -79.9277, "south": 40.47102, "east": -79.92534, "north": 40.47282}, "scoring": {"queryScore": 1.0, "fieldScore": {"state": 1.0, "city": 1.0, "streets": [1.0], "houseNumber": 1.0}}}]}, {"items": [{"title": "128 N Craig St, Pittsburgh, PA 15213-2703, United States", "id": "here:af:streetsection:jkw7XRFYDvyvLcU6OAKzuA:CgcIBCDwr99iEAEaAzEyOChk", "resultType": "houseNumber", "houseNumberType": "PA", "address": {"label": "128 N Craig St, Pittsburgh, PA 15213-2703, United States", "countryCode": "USA", "countryName": "United States", "stateCode": "PA", "state": "Pennsylvania", "county": "Allegheny", "city": "Pittsburgh", "district": "North Oakland", "street": "N Craig St", "postalCode": "15213-2703", "houseNumber": "128"}, "position": {"lat": 40.44767, "lng": -79.94915}, "access": [{"lat": 40.44758, "lng": -79.94936}], "mapView": {"west": -79.95033, "south": 40.44677, "east": -79.94797, "north": 40.44857}, "scoring": {"queryScore": 1.0, "fieldScore": {"state": 1.0, "city": 1.0, "streets": [1.0], "houseNumber": 1.0}}}]}, {"items": [{"title": "7544 Graymore Rd, Pittsburgh, PA 15221-3116, United States", "id": "here:af:streetsection:DVuvH5Hk2SoJFlSHthQajB:CggIBCDK0MqeAhABGgQ3NTQ0KGQ", "resultType": "houseNumber", "houseNumberType": "PA", "address": {"label": "7544 Graymore Rd, Pittsburgh, PA 15221-3116, United States", "countryCode": "USA", "countryName": "United States", "stateCode": "PA", "state": "Pennsylvania", "county": "Allegheny", "city": "Pittsburgh", "district": "Point Breeze", "street": "Graymore Rd", "postalCode": "15221-3116", "houseNumber": "7544"}, "position": {"lat": 40.44268, "lng": -79.89734}, "access": [{"lat": 40.44275, "lng": -79.89734}], "mapView": {"west": -79.89852, "south": 40.44178, "east": -79.89616, "north": 40.44358}, "scoring": {"queryScore": 1.0, "fieldScore": {"state": 1.0, "city": 1.0, "streets": [1.0], "houseNumber": 1.0}}}]}, {"items": [{"title": "1600 Lowrie St, Pittsburgh, PA 15212-4332, United States", "id": "here:af:streetsection:k7W9axWiPevzwNgp26hOzB:CgcIBCDOwKgfEAEaBDE2MDAoZA", "resultType": "houseNumber", "houseNumberType": "PA", "address": {"label": "1600 Lowrie St, Pittsburgh, PA 15212-4332, United States", "countryCode": "USA", "countryName": "United States", "stateCode": "PA", "state": "Pennsylvania", "county": "Allegheny", "city": "Pittsburgh", "district": "Troy Hill", "street": "Lowrie St", "postalCode": "15212-4332", "houseNumber": "1600"}, "position": {"lat": 40.46274, "lng": -79.98355}, "access": [{"lat": 40.46262, "lng": -79.9834}], "mapView": {"west": -79.98473, "south": 40.46184, "east": -79.98237, "north": 40.46364}, "scoring": {"queryScore": 1.0, "fieldScore": {"state": 1.0, "city": 1.0, "streets": [1.0], "houseNumber": 1.0}}}]}, {"items": [{"title": "4070 Beechwood Blvd, Pittsburgh, PA 15217-2618, United States", "id": "here:af:streetsection:TwaJwnWfU7395WJMTaZsPC:CgcIBCCmuJ8gEAEaBDQwNzAoZA", "resultType": "houseNumber", "houseNumberType": "PA", "address": {"label": "4070 Beechwood Blvd, Pittsburgh, PA 15217-2618, United States", "countryCode": "USA", "countryName": "United States", "stateCode": "PA", "state": "Pennsylvania", "county": "Allegheny", "city": "Pittsburgh", "district": "Greenfield", "street": "Beechwood Blvd", "postalCode": "15217-2618", "houseNumber": "4070"}, "position": {"lat": 40.42739, "lng": -79.93805}, "access": [{"lat": 40.42696, "lng": -79.93827}], "mapView": {"west": -79.93923, "south": 40.42649, "east": -79.93687, "north": 40.42829}, "scoring": {"queryScore": 1.0, "fieldScore": {"state": 1.0, "city": 1.0, "streets": [1.0], "houseNumber": 1.0}}}]}, {"items": [{"title": "6611 Kinsman Rd, Pittsburgh, PA 15217-1310, United States", "id": "here:af:streetsection:X5QvRbB0.5AQu2DwmvSpaB:CgcIBCC7_psgEAEaBDY2MTEoZA", "resultType": "houseNumber", "houseNumberType": "PA", "address": {"label": "6611 Kinsman Rd, Pittsburgh, PA 15217-1310, United States", "countryCode": "USA", "countryName": "United States", "stateCode": "PA", "state": "Pennsylvania", "county": "Allegheny", "city": "Pittsburgh", "district": "Squirrel Hill North", "street": "Kinsman Rd", "postalCode": "15217-1310", "houseNumber": "6611"}, "position": {"lat": 40.44533, "lng": -79.91474}, "access": [{"lat": 40.44508, "lng": -79.91466}], "mapView": {"west": -79.91592, "south": 40.44443, "east": -79.91356, "north": 40.44623}, "scoring": {"queryScore": 1.0, "fieldScore": {"state": 1.0, "city": 1.0, "streets": [1.0], "houseNumber": 1.0}}}]}, {"items": [{"title": "104 S 23rd St, Pittsburgh, PA 15203-2200, United States", "id": "here:af:streetsection:YPEYQNxhyR4zZrX8s6uPYA:CgcIBCCWhqAgEAEaAzEwNChk", "resultType": "houseNumber", "houseNumberType": "PA", "address": {"label": "104 S 23rd St, Pittsburgh, PA 15203-2200, United States", "countryCode": "USA", "countryName": "United States", "stateCode": "PA", "state": "Pennsylvania", "county": "Allegheny", "city": "Pittsburgh", "district": "Southside Flats", "street": "S 23rd St", "postalCode": "15203-2200", "houseNumber": "104"}, "position": {"lat": 40.42776, "lng": -79.97352}, "access": [{"lat": 40.42775, "lng": -79.97308}], "mapView": {"west": -79.9747, "south": 40.42686, "east": -79.97234, "north": 40.42866}, "scoring": {"queryScore": 1.0, "fieldScore": {"state": 1.0, "city": 1.0, "streets": [1.0], "houseNumber": 1.0}}}]}, {"items": [{"title": "5230 Natrona Way, Pittsburgh, PA 15201-2550, United States", "id": "here:af:streetsection:V68i6MnH10uSaj4S6cCeWD:CgcIBCDLkKMgEAEaBDUyMzAoZA", "resultType": "houseNumber", "houseNumberType": "PA", "address": {"label": "5230 Natrona Way, Pittsburgh, PA 15201-2550, United States", "countryCode": "USA", "countryName": "United States", "stateCode": "PA", "state": "Pennsylvania", "county": "Allegheny", "city": "Pittsburgh", "district": "Upper Lawrenceville", "street": "Natrona Way", "postalCode": "15201-2550", "houseNumber": "5230"}, "position": {"lat": 40.48029, "lng": -79.95258}, "access": [{"lat": 40.48035, "lng": -79.95267}], "mapView": {"west": -79.95376, "south": 40.47939, "east": -79.9514, "north": 40.48119}, "scoring": {"queryScore": 1.0, "fieldScore": {"state": 1.0, "city": 1.0, "streets": [1.0], "houseNumber": 1.0}}}]}, {"items": [{"title": "176 49th St, Pittsburgh, PA 15201-2733, United States", "id": "here:af:streetsection:McwcxvZic4ML2xrfhq107D:CgcIBCC1sKIgEAEaAzE3Nihk", "resultType": "houseNumber", "houseNumberType": "PA", "address": {"label": "176 49th St, Pittsburgh, PA 15201-2733, United States", "countryCode": "USA", "countryName": "United States", "stateCode": "PA", "state": "Pennsylvania", "county": "Allegheny", "city": "Pittsburgh", "district": "Central Lawrenceville", "street": "49th St", "postalCode": "15201-2733", "houseNumber": "176"}, "position": {"lat": 40.4776, "lng": -79.95796}, "access": [{"lat": 40.4777, "lng": -79.95788}], "mapView": {"west": -79.95914, "south": 40.4767, "east": -79.95678, "north": 40.4785}, "scoring": {"queryScore": 1.0, "fieldScore": {"state": 1.0, "city": 1.0, "streets": [1.0], "houseNumber": 1.0}}}]}, {"items": [{"title": "6346 Ebdy St, Pittsburgh, PA 15217-3036, United States", "id": "here:af:streetsection:g4x6o4KnFzdtSJhp8ToUQD:CgcIBCDL_ZsgEAEaBDYzNDYoZA", "resultType": "houseNumber", "houseNumberType": "PA", "address": {"label": "6346 Ebdy St, Pittsburgh, PA 15217-3036, United States", "countryCode": "USA", "countryName": "United States", "stateCode": "PA", "state": "Pennsylvania", "county": "Allegheny", "city": "Pittsburgh", "district": "Squirrel Hill South", "street": "Ebdy St", "postalCode": "15217-3036", "houseNumber": "6346"}, "position": {"lat": 40.42431, "lng": -79.92244}, "access": [{"lat": 40.42454, "lng": -79.9224}], "mapView": {"west": -79.92362, "south": 40.42341, "east": -79.92126, "north": 40.42521}, "scoring": {"queryScore": 1.0, "fieldScore": {"state": 1.0, "city": 1.0, "streets": [1.0], "houseNumber": 1.0}}}]}, {"items": [{"title": "347 1st Ave, Pittsburgh, PA 15222, United States", "id": "here:af:streetsection:AexSNHxkT344HN0HhRJnAB:CgcIBCCGhKAgEAEaAzM0Nyhk", "resultType": "houseNumber", "houseNumberType": "PA", "address": {"label": "347 1st Ave, Pittsburgh, PA 15222, United States", "countryCode": "USA", "countryName": "United States", "stateCode": "PA", "state": "Pennsylvania", "county": "Allegheny", "city": "Pittsburgh", "district": "First Side", "street": "1st Ave", "postalCode": "15222", "houseNumber": "347"}, "position": {"lat": 40.43751, "lng": -80.00075}, "access": [{"lat": 40.43734, "lng": -80.00085}], "mapView": {"west": -80.00193, "south": 40.43661, "east": -79.99957, "north": 40.43841}, "scoring": {"queryScore": 1.0, "fieldScore": {"state": 1.0, "city": 1.0, "streets": [1.0], "houseNumber": 1.0}}}]}, {"items": [{"title": "200 S 15th St, Pittsburgh, PA 15203-1436, United States", "id": "here:af:streetsection:O2B.FOI98CJAiKBXmlfsjC:CgcIBCDfqp8gEAEaAzIwMChk", "resultType": "houseNumber", "houseNumberType": "PA", "address": {"label": "200 S 15th St, Pittsburgh, PA 15203-1436, United States", "countryCode": "USA", "countryName": "United States", "stateCode": "PA", "state": "Pennsylvania", "county": "Allegheny", "city": "Pittsburgh", "district": "Southside Slopes", "street": "S 15th St", "postalCode": "15203-1436", "houseNumber": "200"}, "position": {"lat": 40.42487, "lng": -79.98344}, "access": [{"lat": 40.4249, "lng": -79.98372}], "mapView": {"west": -79.98462, "south": 40.42397, "east": -79.98226, "north": 40.42577}, "scoring": {"queryScore": 1.0, "fieldScore": {"state": 1.0, "city": 1.0, "streets": [1.0], "houseNumber": 1.0}}}]}, {"items": [{"title": "1741 Duffield St, Pittsburgh, PA 15206-1139, United States", "id": "here:af:streetsection:Yfwsq3M.1hTAjpMv9qQp1A:CgcIBCC1paQgEAEaBDE3NDEoZA", "resultType": "houseNumber", "houseNumberType": "PA", "address": {"label": "1741 Duffield St, Pittsburgh, PA 15206-1139, United States", "countryCode": "USA", "countryName": "United States", "stateCode": "PA", "state": "Pennsylvania", "county": "Allegheny", "city": "Pittsburgh", "district": "Stanton Heights", "street": "Duffield St", "postalCode": "15206-1139", "houseNumber": "1741"}, "position": {"lat": 40.48691, "lng": -79.9284}, "access": [{"lat": 40.48676, "lng": -79.92819}], "mapView": {"west": -79.92958, "south": 40.48601, "east": -79.92722, "north": 40.48781}, "scoring": {"queryScore": 1.0, "fieldScore": {"state": 1.0, "city": 1.0, "streets": [1.0], "houseNumber": 1.0}}}]}, {"items": [{"title": "4944 2nd Ave, Pittsburgh, PA 15207-1623, United States", "id": "here:af:streetsection:EXSLYGP0J.uj80B9lUfHUB:CgcIBCDOqZwgEAEaBDQ5NDQoZA", "resultType": "houseNumber", "houseNumberType": "PA", "address": {"label": "4944 2nd Ave, Pittsburgh, PA 15207-1623, United States", "countryCode": "USA", "countryName": "United States", "stateCode": "PA", "state": "Pennsylvania", "county": "Allegheny", "city": "Pittsburgh", "district": "Hazelwood", "street": "2nd Ave", "postalCode": "15207-1623", "houseNumber": "4944"}, "position": {"lat": 40.40872, "lng": -79.94402}, "access": [{"lat": 40.40877, "lng": -79.94374}], "mapView": {"west": -79.9452, "south": 40.40782, "east": -79.94284, "north": 40.40962}, "scoring": {"queryScore": 1.0, "fieldScore": {"state": 1.0, "city": 1.0, "streets": [1.0], "houseNumber": 1.0}}}]}, {"items": [{"title": "120 6th St, Pittsburgh, PA 15222-3304, United States", "id": "here:af:streetsection:wqM6mhi0KftvtE82jzwqMD:CgcIBCDxtrpGEAEaAzEyMChk", "resultType": "houseNumber", "houseNumberType": "PA", "address": {"label": "120 6th St, Pittsburgh, PA 15222-3304, United States", "countryCode": "USA", "countryName": "United States", "stateCode": "PA", "state": "Pennsylvania", "county": "Allegheny", "city": "Pittsburgh", "district": "Cultural District", "street": "6th St", "postalCode": "15222-3304", "houseNumber": "120"}, "position": {"lat": 40.44336, "lng": -80.00273}, "access": [{"lat": 40.44343, "lng": -80.00248}], "mapView": {"west": -80.00391, "south": 40.44246, "east": -80.00155, "north": 40.44426}, "scoring": {"queryScore": 1.0, "fieldScore": {"state": 1.0, "city": 1.0, "streets": [1.0], "houseNumber": 1.0}}}, {"title": "120 6th St, Pittsburgh, PA 15229-1257, United States", "id": "here:af:streetsection:Oqp92NS93WSH9no1xsgy2B:CgcIBCD35asfEAEaAzEyMChk", "resultType": "houseNumber", "houseNumberType": "PA", "address": {"label": "120 6th St, Pittsburgh, PA 15229-1257, United States", "countryCode": "USA", "countryName": "United States", "stateCode": "PA", "state": "Pennsylvania", "county": "Allegheny", "city": "Pittsburgh", "street": "6th St", "postalCode": "15229-1257", "houseNumber": "120"}, "position": {"lat": 40.53144, "lng": -80.02092}, "access": [{"lat": 40.53169, "lng": -80.02095}], "mapView": {"west": -80.0221, "south": 40.53054, "east": -80.01974, "north": 40.53234}, "scoring": {"queryScore": 1.0, "fieldScore": {"state": 1.0, "city": 1.0, "streets": [1.0], "houseNumber": 1.0}}}]}, {"items": [{"title": "1009 Grandview Ave, Pittsburgh, PA 15211-1331, United States", "id": "here:af:streetsection:JQnEABLbZslJlfj5ExO1yA:CgcIBCCx7p4gEAEaBDEwMDkoZA", "resultType": "houseNumber", "houseNumberType": "PA", "address": {"label": "1009 Grandview Ave, Pittsburgh, PA 15211-1331, United States", "countryCode": "USA", "countryName": "United States", "stateCode": "PA", "state": "Pennsylvania", "county": "Allegheny", "city": "Pittsburgh", "district": "Mount Washington", "street": "Grandview Ave", "postalCode": "15211-1331", "houseNumber": "1009"}, "position": {"lat": 40.43668, "lng": -80.01671}, "access": [{"lat": 40.43688, "lng": -80.01652}], "mapView": {"west": -80.01789, "south": 40.43578, "east": -80.01553, "north": 40.43758}, "scoring": {"queryScore": 1.0, "fieldScore": {"state": 1.0, "city": 1.0, "streets": [1.0], "houseNumber": 1.0}}}, {"title": "1009 Grandview Ave, Pittsburgh, PA 15237-2252, United States", "id": "here:af:streetsection:n8hdjfcqvLx8KdKLbFKJqA:CgcIBCDR4KgfEAEaBDEwMDkoZA", "resultType": "houseNumber", "houseNumberType": "PA", "address": {"label": "1009 Grandview Ave, Pittsburgh, PA 15237-2252, United States", "countryCode": "USA", "countryName": "United States", "stateCode": "PA", "state": "Pennsylvania", "county": "Allegheny", "city": "Pittsburgh", "street": "Grandview Ave", "postalCode": "15237-2252", "houseNumber": "1009"}, "position": {"lat": 40.5374, "lng": -80.0317}, "access": [{"lat": 40.5375, "lng": -80.03143}], "mapView": {"west": -80.03288, "south": 40.5365, "east": -80.03052, "north": 40.5383}, "scoring": {"queryScore": 1.0, "fieldScore": {"state": 1.0, "city": 1.0, "streets": [1.0], "houseNumber": 1.0}}}]}, {"items": [{"title": "104 Sampsonia Way, Pittsburgh, PA 15212-4428, United States", "id": "here:af:streetsection:D1lMfhx4khVZKaqE85wh9B:CgcIBCCEzZQfEAEaAzEwNChk", "resultType": "houseNumber", "houseNumberType": "PA", "address": {"label": "104 Sampsonia Way, Pittsburgh, PA 15212-4428, United States", "countryCode": "USA", "countryName": "United States", "stateCode": "PA", "state": "Pennsylvania", "county": "Allegheny", "city": "Pittsburgh", "district": "Central Northside", "street": "Sampsonia Way", "postalCode": "15212-4428", "houseNumber": "104"}, "position": {"lat": 40.45761, "lng": -80.00863}, "access": [{"lat": 40.45744, "lng": -80.00858}], "mapView": {"west": -80.00981, "south": 40.45671, "east": -80.00745, "north": 40.45851}, "scoring": {"queryScore": 1.0, "fieldScore": {"state": 1.0, "city": 1.0, "streets": [1.0], "houseNumber": 1.0}}}]}, {"items": [{"title": "8207 Frankstown Ave, Pittsburgh, PA 15221-1333, United States", "id": "here:af:streetsection:CveHp4gAheM-U2dgzT7itD:CggIBCD-2taUAhABGgQ4MjA3KGQ", "resultType": "houseNumber", "houseNumberType": "PA", "address": {"label": "8207 Frankstown Ave, Pittsburgh, PA 15221-1333, United States", "countryCode": "USA", "countryName": "United States", "stateCode": "PA", "state": "Pennsylvania", "county": "Allegheny", "city": "Pittsburgh", "district": "Homewood North", "street": "Frankstown Ave", "postalCode": "15221-1333", "houseNumber": "8207"}, "position": {"lat": 40.45544, "lng": -79.88057}, "access": [{"lat": 40.45514, "lng": -79.88045}], "mapView": {"west": -79.88175, "south": 40.45454, "east": -79.87939, "north": 40.45634}, "scoring": {"queryScore": 1.0, "fieldScore": {"state": 1.0, "city": 1.0, "streets": [1.0], "houseNumber": 1.0}}}]}, {"items": [{"title": "417 S Craig St, Pittsburgh, PA 15213-3708, United States", "id": "here:af:streetsection:Xeuw70ZClXxWVYaYceI5AB:CgcIBCDZs-BiEAEaAzQxNyhk", "resultType": "houseNumber", "houseNumberType": "PA", "address": {"label": "417 S Craig St, Pittsburgh, PA 15213-3708, United States", "countryCode": "USA", "countryName": "United States", "stateCode": "PA", "state": "Pennsylvania", "county": "Allegheny", "city": "Pittsburgh", "district": "North Oakland", "street": "S Craig St", "postalCode": "15213-3708", "houseNumber": "417"}, "position": {"lat": 40.44473, "lng": -79.94856}, "access": [{"lat": 40.44471, "lng": -79.9487}], "mapView": {"west": -79.94974, "south": 40.44383, "east": -79.94738, "north": 40.44563}, "scoring": {"queryScore": 1.0, "fieldScore": {"state": 1.0, "city": 1.0, "streets": [1.0], "houseNumber": 1.0}}}]}, {"items": [{"title": "7 Mitchell St, Pittsburgh, PA 15212-2020, United States", "id": "here:af:streetsection:zjpJDwnT7quLwqlzg9YabD:CgcIBCDTwJYfEAEaATcoZA", "resultType": "houseNumber", "houseNumberType": "PA", "address": {"label": "7 Mitchell St, Pittsburgh, PA 15212-2020, United States", "countryCode": "USA", "countryName": "United States", "stateCode": "PA", "state": "Pennsylvania", "county": "Allegheny", "city": "Pittsburgh", "district": "Brighton Heights", "street": "Mitchell St", "postalCode": "15212-2020", "houseNumber": "7"}, "position": {"lat": 40.47684, "lng": -80.02938}, "access": [{"lat": 40.47673, "lng": -80.02944}], "mapView": {"west": -80.03056, "south": 40.47594, "east": -80.0282, "north": 40.47774}, "scoring": {"queryScore": 1.0, "fieldScore": {"state": 1.0, "city": 1.0, "streets": [1.0], "houseNumber": 1.0}}}]}, {"items": [{"title": "2503 Cobden St, Pittsburgh, PA 15203-2713, United States", "id": "here:af:streetsection:NPHufHMjg6TGJjzZ8w9WyB:CgcIBCCL558gEAEaBDI1MDMoZA", "resultType": "houseNumber", "houseNumberType": "PA", "address": {"label": "2503 Cobden St, Pittsburgh, PA 15203-2713, United States", "countryCode": "USA", "countryName": "United States", "stateCode": "PA", "state": "Pennsylvania", "county": "Allegheny", "city": "Pittsburgh", "district": "Southside Slopes", "street": "Cobden St", "postalCode": "15203-2713", "houseNumber": "2503"}, "position": {"lat": 40.42018, "lng": -79.97071}, "access": [{"lat": 40.41996, "lng": -79.97076}], "mapView": {"west": -79.97189, "south": 40.41928, "east": -79.96953, "north": 40.42108}, "scoring": {"queryScore": 1.0, "fieldScore": {"state": 1.0, "city": 1.0, "streets": [1.0], "houseNumber": 1.0}}}]}, {"items": [{"title": "3612 Smallman St, Pittsburgh, PA 15201-1939, United States", "id": "here:af:streetsection:-IwgR0GwTa7D8nKyxSstaA:CgcIBCDDnaEgEAEaBDM2MTIoZA", "resultType": "houseNumber", "houseNumberType": "PA", "address": {"label": "3612 Smallman St, Pittsburgh, PA 15201-1939, United States", "countryCode": "USA", "countryName": "United States", "stateCode": "PA", "state": "Pennsylvania", "county": "Allegheny", "city": "Pittsburgh", "district": "Lower Lawrenceville", "street": "Smallman St", "postalCode": "15201-1939", "houseNumber": "3612"}, "position": {"lat": 40.46628, "lng": -79.96655}, "access": [{"lat": 40.46638, "lng": -79.96678}], "mapView": {"west": -79.96773, "south": 40.46538, "east": -79.96537, "north": 40.46718}, "scoring": {"queryScore": 1.0, "fieldScore": {"state": 1.0, "city": 1.0, "streets": [1.0], "houseNumber": 1.0}}}]}, {"items": [{"title": "4321 Summit St, Pittsburgh, PA 15201-2827, United States", "id": "here:af:streetsection:vA05y1aPCQdsq-6bp-YzPA:CgcIBCDilKIgEAEaBDQzMjEoZA", "resultType": "houseNumber", "houseNumberType": "PA", "address": {"label": "4321 Summit St, Pittsburgh, PA 15201-2827, United States", "countryCode": "USA", "countryName": "United States", "stateCode": "PA", "state": "Pennsylvania", "county": "Allegheny", "city": "Pittsburgh", "district": "Central Lawrenceville", "street": "Summit St", "postalCode": "15201-2827", "houseNumber": "4321"}, "position": {"lat": 40.4708, "lng": -79.95928}, "access": [{"lat": 40.47074, "lng": -79.95919}], "mapView": {"west": -79.96046, "south": 40.4699, "east": -79.9581, "north": 40.4717}, "scoring": {"queryScore": 1.0, "fieldScore": {"state": 1.0, "city": 1.0, "streets": [1.0], "houseNumber": 1.0}}}]}, {"items": [{"title": "35 Mount Oliver St, Pittsburgh, PA 15210-1745, United States", "id": "here:af:streetsection:RcLytpnWi7pOrvD7kKmOSC:CgcIBCCeg6ROEAEaAjM1KGQ", "resultType": "houseNumber", "houseNumberType": "PA", "address": {"label": "35 Mount Oliver St, Pittsburgh, PA 15210-1745, United States", "countryCode": "USA", "countryName": "United States", "stateCode": "PA", "state": "Pennsylvania", "county": "Allegheny", "city": "Pittsburgh", "district": "Southside Slopes", "street": "Mount Oliver St", "postalCode": "15210-1745", "houseNumber": "35"}, "position": {"lat": 40.42075, "lng": -79.98769}, "access": [{"lat": 40.42067, "lng": -79.98756}], "mapView": {"west": -79.98887, "south": 40.41985, "east": -79.98651, "north": 40.42165}, "scoring": {"queryScore": 1.0, "fieldScore": {"state": 1.0, "city": 1.0, "streets": [1.0], "houseNumber": 1.0}}}]}, {"items": [{"title": "183 Almond Way, Pittsburgh, PA 15201-3220, United States", "id": "here:af:streetsection:ib7VXcDuzCGJpR35Sy4xrB:CgcIBCD0q6MgEAEaAzE4Myhk", "resultType": "houseNumber", "houseNumberType": "PA", "address": {"label": "183 Almond Way, Pittsburgh, PA 15201-3220, United States", "countryCode": "USA", "countryName": "United States", "stateCode": "PA", "state": "Pennsylvania", "county": "Allegheny", "city": "Pittsburgh", "district": "Central Lawrenceville", "street": "Almond Way", "postalCode": "15201-3220", "houseNumber": "183"}, "position": {"lat": 40.46971, "lng": -79.96228}, "access": [{"lat": 40.4696, "lng": -79.9624}], "mapView": {"west": -79.96346, "south": 40.46881, "east": -79.9611, "north": 40.47061}, "scoring": {"queryScore": 1.0, "fieldScore": {"state": 1.0, "city": 1.0, "streets": [1.0], "houseNumber": 1.0}}}]}, {"items": [{"title": "1127 Greenfield Ave, Pittsburgh, PA 15217-2930, United States", "id": "here:af:streetsection:lxto07wXM7ZsL8ZFz1zjAC:CgcIBCD-qpwgEAEaBDExMjcoZA", "resultType": "houseNumber", "houseNumberType": "PA", "address": {"label": "1127 Greenfield Ave, Pittsburgh, PA 15217-2930, United States", "countryCode": "USA", "countryName": "United States", "stateCode": "PA", "state": "Pennsylvania", "county": "Allegheny", "city": "Pittsburgh", "district": "Greenfield", "street": "Greenfield Ave", "postalCode": "15217-2930", "houseNumber": "1127"}, "position": {"lat": 40.42098, "lng": -79.92929}, "access": [{"lat": 40.42093, "lng": -79.92958}], "mapView": {"west": -79.93047, "south": 40.42008, "east": -79.92811, "north": 40.42188}, "scoring": {"queryScore": 1.0, "fieldScore": {"state": 1.0, "city": 1.0, "streets": [1.0], "houseNumber": 1.0}}}]}, {"items": [{"title": "607 E Warrington Ave, Pittsburgh, PA 15210-1564, United States", "id": "here:af:streetsection:34W69oUNKziYqFR7wFMAKA:CgcIBCDGi58gEAEaAzYwNyhk", "resultType": "houseNumber", "houseNumberType": "PA", "address": {"label": "607 E Warrington Ave, Pittsburgh, PA 15210-1564, United States", "countryCode": "USA", "countryName": "United States", "stateCode": "PA", "state": "Pennsylvania", "county": "Allegheny", "city": "Pittsburgh", "district": "Allentown", "street": "E Warrington Ave", "postalCode": "15210-1564", "houseNumber": "607"}, "position": {"lat": 40.4219, "lng": -79.99699}, "access": [{"lat": 40.4217, "lng": -79.99696}], "mapView": {"west": -79.99817, "south": 40.421, "east": -79.99581, "north": 40.4228}, "scoring": {"queryScore": 1.0, "fieldScore": {"state": 1.0, "city": 1.0, "streets": [1.0], "houseNumber": 1.0}}}]}, {"items": [{"title": "300 Wood St, Pittsburgh, PA 15222-1915, United States", "id": "here:af:streetsection:Cl3gB6qgnCQWhqG8tE70WA:CgcIBCDSoaEgEAEaAzMwMChk", "resultType": "houseNumber", "houseNumberType": "PA", "address": {"label": "300 Wood St, Pittsburgh, PA 15222-1915, United States", "countryCode": "USA", "countryName": "United States", "stateCode": "PA", "state": "Pennsylvania", "county": "Allegheny", "city": "Pittsburgh", "district": "Fifth and Forbes Corridor", "street": "Wood St", "postalCode": "15222-1915", "houseNumber": "300"}, "position": {"lat": 40.43892, "lng": -80.00125}, "access": [{"lat": 40.43905, "lng": -80.00158}], "mapView": {"west": -80.00243, "south": 40.43802, "east": -80.00007, "north": 40.43982}, "scoring": {"queryScore": 1.0, "fieldScore": {"state": 1.0, "city": 1.0, "streets": [1.0], "houseNumber": 1.0}}}]}, {"items": [{"title": "1351 Cordova Rd, Pittsburgh, PA 15206-1430, United States", "id": "here:af:streetsection:OrqjzlJqDVqBLY2Cz69MHA:CgcIBCDBoKMgEAEaBDEzNTEoZA", "resultType": "houseNumber", "houseNumberType": "PA", "address": {"label": "1351 Cordova Rd, Pittsburgh, PA 15206-1430, United States", "countryCode": "USA", "countryName": "United States", "stateCode": "PA", "state": "Pennsylvania", "county": "Allegheny", "city": "Pittsburgh", "district": "Highland Park", "street": "Cordova Rd", "postalCode": "15206-1430", "houseNumber": "1351"}, "position": {"lat": 40.47996, "lng": -79.92662}, "access": [{"lat": 40.47984, "lng": -79.92644}], "mapView": {"west": -79.9278, "south": 40.47906, "east": -79.92544, "north": 40.48086}, "scoring": {"queryScore": 1.0, "fieldScore": {"state": 1.0, "city": 1.0, "streets": [1.0], "houseNumber": 1.0}}}]}, {"items": [{"title": "124 Laughlin Ave, Pittsburgh, PA 15210-3620, United States", "id": "here:af:streetsection:B1JOAze9qYrIo4PSms73IA:CgcIBCC3jZ0gEAEaAzEyNChk", "resultType": "houseNumber", "houseNumberType": "PA", "address": {"label": "124 Laughlin Ave, Pittsburgh, PA 15210-3620, United States", "countryCode": "USA", "countryName": "United States", "stateCode": "PA", "state": "Pennsylvania", "county": "Allegheny", "city": "Pittsburgh", "district": "Carrick", "street": "Laughlin Ave", "postalCode": "15210-3620", "houseNumber": "124"}, "position": {"lat": 40.40415, "lng": -79.98805}, "access": [{"lat": 40.40428, "lng": -79.98805}], "mapView": {"west": -79.98923, "south": 40.40325, "east": -79.98687, "north": 40.40505}, "scoring": {"queryScore": 1.0, "fieldScore": {"state": 1.0, "city": 1.0, "streets": [1.0], "houseNumber": 1.0}}}]}, {"items": [{"title": "43 Norton St, Pittsburgh, PA 15211-1843, United States", "id": "here:af:streetsection:e2k3uT0fHWN7kRzmFEBSZA:CgcIBCDboKEgEAEaAjQzKGQ", "resultType": "houseNumber", "houseNumberType": "PA", "address": {"label": "43 Norton St, Pittsburgh, PA 15211-1843, United States", "countryCode": "USA", "countryName": "United States", "stateCode": "PA", "state": "Pennsylvania", "county": "Allegheny", "city": "Pittsburgh", "district": "Mount Washington", "street": "Norton St", "postalCode": "15211-1843", "houseNumber": "43"}, "position": {"lat": 40.42578, "lng": -80.01001}, "access": [{"lat": 40.42585, "lng": -80.01026}], "mapView": {"west": -80.01119, "south": 40.42488, "east": -80.00883, "north": 40.42668}, "scoring": {"queryScore": 1.0, "fieldScore": {"state": 1.0, "city": 1.0, "streets": [1.0], "houseNumber": 1.0}}}]}, {"items": [{"title": "5820 Northumberland St, Pittsburgh, PA 15217-1227, United States", "id": "here:af:streetsection:TlvE5Y0lNuTgIMAPdFazyD:CgcIBCCV6JsgEAEaBDU4MjAoZA", "resultType": "houseNumber", "houseNumberType": "PA", "address": {"label": "5820 Northumberland St, Pittsburgh, PA 15217-1227, United States", "countryCode": "USA", "countryName": "United States", "stateCode": "PA", "state": "Pennsylvania", "county": "Allegheny", "city": "Pittsburgh", "district": "Squirrel Hill North", "street": "Northumberland St", "postalCode": "15217-1227", "houseNumber": "5820"}, "position": {"lat": 40.4413, "lng": -79.92247}, "access": [{"lat": 40.44152, "lng": -79.9225}], "mapView": {"west": -79.92365, "south": 40.4404, "east": -79.92129, "north": 40.4422}, "scoring": {"queryScore": 1.0, "fieldScore": {"state": 1.0, "city": 1.0, "streets": [1.0], "houseNumber": 1.0}}}]}, {"items": [{"title": "2339 Parklyn St, Pittsburgh, PA 15234-2930, United States", "id": "here:af:streetsection:-8vklR.rVnhQH8ON1QPJ5B:CgcIBCCP84QkEAEaBDIzMzkoZA", "resultType": "houseNumber", "houseNumberType": "PA", "address": {"label": "2339 Parklyn St, Pittsburgh, PA 15234-2930, United States", "countryCode": "USA", "countryName": "United States", "stateCode": "PA", "state": "Pennsylvania", "county": "Allegheny", "city": "Pittsburgh", "district": "Overbrook", "street": "Parklyn St", "postalCode": "15234-2930", "houseNumber": "2339"}, "position": {"lat": 40.3843, "lng": -80.00167}, "access": [{"lat": 40.38421, "lng": -80.00186}], "mapView": {"west": -80.00285, "south": 40.3834, "east": -80.00049, "north": 40.3852}, "scoring": {"queryScore": 1.0, "fieldScore": {"state": 1.0, "city": 1.0, "streets": [1.0], "houseNumber": 1.0}}}]}, {"items": [{"title": "5156 Carnegie St, Pittsburgh, PA 15201-2534, United States", "id": "here:af:streetsection:4wGbMZccoDTaNQXoooxw1B:CgcIBCCrvaMgEAEaBDUxNTYoZA", "resultType": "houseNumber", "houseNumberType": "PA", "address": {"label": "5156 Carnegie St, Pittsburgh, PA 15201-2534, United States", "countryCode": "USA", "countryName": "United States", "stateCode": "PA", "state": "Pennsylvania", "county": "Allegheny", "city": "Pittsburgh", "district": "Upper Lawrenceville", "street": "Carnegie St", "postalCode": "15201-2534", "houseNumber": "5156"}, "position": {"lat": 40.4792, "lng": -79.95381}, "access": [{"lat": 40.47932, "lng": -79.95401}], "mapView": {"west": -79.95499, "south": 40.4783, "east": -79.95263, "north": 40.4801}, "scoring": {"queryScore": 1.0, "fieldScore": {"state": 1.0, "city": 1.0, "streets": [1.0], "houseNumber": 1.0}}}]}, {"items": [{"title": "3109 Wadlow St, Pittsburgh, PA 15212-2403, United States", "id": "here:af:streetsection:RLP1qnTcwc-wOeatx9DVWD:CgcIBCDhopYfEAEaBDMxMDkoZA", "resultType": "houseNumber", "houseNumberType": "PA", "address": {"label": "3109 Wadlow St, Pittsburgh, PA 15212-2403, United States", "countryCode": "USA", "countryName": "United States", "stateCode": "PA", "state": "Pennsylvania", "county": "Allegheny", "city": "Pittsburgh", "district": "Brighton Heights", "street": "Wadlow St", "postalCode": "15212-2403", "houseNumber": "3109"}, "position": {"lat": 40.47379, "lng": -80.03021}, "access": [{"lat": 40.47383, "lng": -80.02996}], "mapView": {"west": -80.03139, "south": 40.47289, "east": -80.02903, "north": 40.47469}, "scoring": {"queryScore": 1.0, "fieldScore": {"state": 1.0, "city": 1.0, "streets": [1.0], "houseNumber": 1.0}}}]}, {"items": [{"title": "3912 Perrysville Ave, Pittsburgh, PA 15214-1722, United States", "id": "here:af:streetsection:GV5ZZXWBpUnCHuKiHvDmmB:CgcIBCCwtpYfEAEaBDM5MTIoZA", "resultType": "houseNumber", "houseNumberType": "PA", "address": {"label": "3912 Perrysville Ave, Pittsburgh, PA 15214-1722, United States", "countryCode": "USA", "countryName": "United States", "stateCode": "PA", "state": "Pennsylvania", "county": "Allegheny", "city": "Pittsburgh", "district": "Perry North", "street": "Perrysville Ave", "postalCode": "15214-1722", "houseNumber": "3912"}, "position": {"lat": 40.48997, "lng": -80.01818}, "access": [{"lat": 40.48993, "lng": -80.01846}], "mapView": {"west": -80.01936, "south": 40.48907, "east": -80.017, "north": 40.49087}, "scoring": {"queryScore": 1.0, "fieldScore": {"state": 1.0, "city": 1.0, "streets": [1.0], "houseNumber": 1.0}}}]}, {"items": [{"title": "3920 Shoreham St, Pittsburgh, PA 15212-1528, United States", "id": "here:af:streetsection:QCikzrPAbX4AltIiOTcWoD:CgcIBCDRj5YfEAEaBDM5MjAoZA", "resultType": "houseNumber", "houseNumberType": "PA", "address": {"label": "3920 Shoreham St, Pittsburgh, PA 15212-1528, United States", "countryCode": "USA", "countryName": "United States", "stateCode": "PA", "state": "Pennsylvania", "county": "Allegheny", "city": "Pittsburgh", "district": "Brighton Heights", "street": "Shoreham St", "postalCode": "15212-1528", "houseNumber": "3920"}, "position": {"lat": 40.48888, "lng": -80.03967}, "access": [{"lat": 40.48881, "lng": -80.03981}], "mapView": {"west": -80.04085, "south": 40.48798, "east": -80.03849, "north": 40.48978}, "scoring": {"queryScore": 1.0, "fieldScore": {"state": 1.0, "city": 1.0, "streets": [1.0], "houseNumber": 1.0}}}]}, {"items": [{"title": "206 S Pacific Ave, Pittsburgh, PA 15224-1720, United States", "id": "here:af:streetsection:vHXbVGUJbFoliZKIjVUuTC:CgcIBCDfgKIgEAEaAzIwNihk", "resultType": "houseNumber", "houseNumberType": "PA", "address": {"label": "206 S Pacific Ave, Pittsburgh, PA 15224-1720, United States", "countryCode": "USA", "countryName": "United States", "stateCode": "PA", "state": "Pennsylvania", "county": "Allegheny", "city": "Pittsburgh", "district": "Bloomfield", "street": "S Pacific Ave", "postalCode": "15224-1720", "houseNumber": "206"}, "position": {"lat": 40.46372, "lng": -79.94045}, "access": [{"lat": 40.4637, "lng": -79.94019}], "mapView": {"west": -79.94163, "south": 40.46282, "east": -79.93927, "north": 40.46462}, "scoring": {"queryScore": 1.0, "fieldScore": {"state": 1.0, "city": 1.0, "streets": [1.0], "houseNumber": 1.0}}}]}, {"items": [{"title": "7608 Frankstown Ave, Pittsburgh, PA 15208-1624, United States", "id": "here:af:streetsection:Mef2xmK-F1hauFoprI3XXD:CgcIBCDt-aQgEAEaBDc2MDgoZA", "resultType": "houseNumber", "houseNumberType": "PA", "address": {"label": "7608 Frankstown Ave, Pittsburgh, PA 15208-1624, United States", "countryCode": "USA", "countryName": "United States", "stateCode": "PA", "state": "Pennsylvania", "county": "Allegheny", "city": "Pittsburgh", "district": "Homewood North", "street": "Frankstown Ave", "postalCode": "15208-1624", "houseNumber": "7608"}, "position": {"lat": 40.45562, "lng": -79.88968}, "access": [{"lat": 40.45587, "lng": -79.88963}], "mapView": {"west": -79.89086, "south": 40.45472, "east": -79.8885, "north": 40.45652}, "scoring": {"queryScore": 1.0, "fieldScore": {"state": 1.0, "city": 1.0, "streets": [1.0], "houseNumber": 1.0}}}]}, {"items": [{"title": "152 47th St, Pittsburgh, PA 15201-2954, United States", "id": "here:af:streetsection:Ii955dt6Ys0tO73YPmYiQA:CgcIBCDJy6MgEAEaAzE1Mihk", "resultType": "houseNumber", "houseNumberType": "PA", "address": {"label": "152 47th St, Pittsburgh, PA 15201-2954, United States", "countryCode": "USA", "countryName": "United States", "stateCode": "PA", "state": "Pennsylvania", "county": "Allegheny", "city": "Pittsburgh", "district": "Central Lawrenceville", "street": "47th St", "postalCode": "15201-2954", "houseNumber": "152"}, "position": {"lat": 40.47492, "lng": -79.95968}, "access": [{"lat": 40.47504, "lng": -79.95957}], "mapView": {"west": -79.96086, "south": 40.47402, "east": -79.9585, "north": 40.47582}, "scoring": {"queryScore": 1.0, "fieldScore": {"state": 1.0, "city": 1.0, "streets": [1.0], "houseNumber": 1.0}}}]}, {"items": [{"title": "5600 Munhall Rd, Pittsburgh, PA 15217-2008, United States", "id": "here:af:streetsection:eCHHN6zZBfflCyYjbQp6fD:CgcIBCDPuqIgEAEaBDU2MDAoZA", "resultType": "houseNumber", "houseNumberType": "PA", "address": {"label": "5600 Munhall Rd, Pittsburgh, PA 15217-2008, United States", "countryCode": "USA", "countryName": "United States", "stateCode": "PA", "state": "Pennsylvania", "county": "Allegheny", "city": "Pittsburgh", "district": "Squirrel Hill South", "street": "Munhall Rd", "postalCode": "15217-2008", "houseNumber": "5600"}, "position": {"lat": 40.43342, "lng": -79.92618}, "access": [{"lat": 40.43343, "lng": -79.92556}], "mapView": {"west": -79.92736, "south": 40.43252, "east": -79.925, "north": 40.43432}, "scoring": {"queryScore": 1.0, "fieldScore": {"state": 1.0, "city": 1.0, "streets": [1.0], "houseNumber": 1.0}}}]}, {"items": [{"title": "134 Enterprise St, Pittsburgh, PA 15206-4017, United States", "id": "here:af:streetsection:HPWwwAndv0nYR2de24wI.D:CgcIBCCyk6UgEAEaAzEzNChk", "resultType": "houseNumber", "houseNumberType": "PA", "address": {"label": "134 Enterprise St, Pittsburgh, PA 15206-4017, United States", "countryCode": "USA", "countryName": "United States", "stateCode": "PA", "state": "Pennsylvania", "county": "Allegheny", "city": "Pittsburgh", "district": "Larimer", "street": "Enterprise St", "postalCode": "15206-4017", "houseNumber": "134"}, "position": {"lat": 40.45976, "lng": -79.91398}, "access": [{"lat": 40.45982, "lng": -79.91413}], "mapView": {"west": -79.91516, "south": 40.45886, "east": -79.9128, "north": 40.46066}, "scoring": {"queryScore": 1.0, "fieldScore": {"state": 1.0, "city": 1.0, "streets": [1.0], "houseNumber": 1.0}}}]}, {"items": [{"title": "638 E End Ave, Pittsburgh, PA 15221-3424, United States", "id": "here:af:streetsection:hIBQV-QWceZ3ErqNBU6lvC:CgcIBCDIzKspEAEaAzYzOChk", "resultType": "houseNumber", "houseNumberType": "PA", "address": {"label": "638 E End Ave, Pittsburgh, PA 15221-3424, United States", "countryCode": "USA", "countryName": "United States", "stateCode": "PA", "state": "Pennsylvania", "county": "Allegheny", "city": "Pittsburgh", "district": "Regent Square", "street": "E End Ave", "postalCode": "15221-3424", "houseNumber": "638"}, "position": {"lat": 40.4387, "lng": -79.89635}, "access": [{"lat": 40.43877, "lng": -79.89607}], "mapView": {"west": -79.89753, "south": 40.4378, "east": -79.89517, "north": 40.4396}, "scoring": {"queryScore": 1.0, "fieldScore": {"state": 1.0, "city": 1.0, "streets": [1.0], "houseNumber": 1.0}}}]}, {"items": [{"title": "4017 Oswald St, Pittsburgh, PA 15212-1744, United States", "id": "here:af:streetsection:DrbASfPUyCb8AVX4NKr3lB:CgcIBCDrr5gfEAEaBDQwMTcoZA", "resultType": "houseNumber", "houseNumberType": "PA", "address": {"label": "4017 Oswald St, Pittsburgh, PA 15212-1744, United States", "countryCode": "USA", "countryName": "United States", "stateCode": "PA", "state": "Pennsylvania", "county": "Allegheny", "city": "Pittsburgh", "district": "Brighton Heights", "street": "Oswald St", "postalCode": "15212-1744", "houseNumber": "4017"}, "position": {"lat": 40.48568, "lng": -80.0445}, "access": [{"lat": 40.48585, "lng": -80.04432}], "mapView": {"west": -80.04568, "south": 40.48478, "east": -80.04332, "north": 40.48658}, "scoring": {"queryScore": 1.0, "fieldScore": {"state": 1.0, "city": 1.0, "streets": [1.0], "houseNumber": 1.0}}}]}, {"items": [{"title": "5628 Jackson St, Pittsburgh, PA 15206-1522, United States", "id": "here:af:streetsection:g02yijb-JZAB5e7Jq3Eg1C:CgcIBCDF9qMgEAEaBDU2MjgoZA", "resultType": "houseNumber", "houseNumberType": "PA", "address": {"label": "5628 Jackson St, Pittsburgh, PA 15206-1522, United States", "countryCode": "USA", "countryName": "United States", "stateCode": "PA", "state": "Pennsylvania", "county": "Allegheny", "city": "Pittsburgh", "district": "Highland Park", "street": "Jackson St", "postalCode": "15206-1522", "houseNumber": "5628"}, "position": {"lat": 40.47229, "lng": -79.92462}, "access": [{"lat": 40.47246, "lng": -79.92457}], "mapView": {"west": -79.9258, "south": 40.47139, "east": -79.92344, "north": 40.47319}, "scoring": {"queryScore": 1.0, "fieldScore": {"state": 1.0, "city": 1.0, "streets": [1.0], "houseNumber": 1.0}}}]}, {"items": [{"title": "963 Milton St, Pittsburgh, PA 15218-1031, United States", "id": "here:af:streetsection:iNPLEX5T2NTeC..v.YB2BA:EAIaAzk2Myhk", "resultType": "houseNumber", "houseNumberType": "interpolated", "address": {"label": "963 Milton St, Pittsburgh, PA 15218-1031, United States", "countryCode": "USA", "countryName": "United States", "stateCode": "PA", "state": "Pennsylvania", "county": "Allegheny", "city": "Pittsburgh", "district": "Regent Square", "street": "Milton St", "postalCode": "15218-1031", "houseNumber": "963"}, "position": {"lat": 40.43436, "lng": -79.89625}, "access": [{"lat": 40.43429, "lng": -79.89641}], "mapView": {"west": -79.89743, "south": 40.43346, "east": -79.89507, "north": 40.43526}, "scoring": {"queryScore": 1.0, "fieldScore": {"state": 1.0, "city": 1.0, "streets": [1.0], "houseNumber": 1.0}}}]}, {"items": [{"title": "5207 Brown Way, Pittsburgh, PA 15224-1233, United States", "id": "here:af:streetsection:c8U-QwlE6E4rLSiU1xyoxB:CggIBCCKqqXeAhABGgQ1MjA3KGQ", "resultType": "houseNumber", "houseNumberType": "PA", "address": {"label": "5207 Brown Way, Pittsburgh, PA 15224-1233, United States", "countryCode": "USA", "countryName": "United States", "stateCode": "PA", "state": "Pennsylvania", "county": "Allegheny", "city": "Pittsburgh", "district": "Garfield", "street": "Brown Way", "postalCode": "15224-1233", "houseNumber": "5207"}, "position": {"lat": 40.46734, "lng": -79.93906}, "access": [{"lat": 40.46715, "lng": -79.93911}], "mapView": {"west": -79.94024, "south": 40.46644, "east": -79.93788, "north": 40.46824}, "scoring": {"queryScore": 1.0, "fieldScore": {"state": 1.0, "city": 1.0, "streets": [1.0], "houseNumber": 1.0}}}]}, {"items": [{"title": "118 44th St, Pittsburgh, PA 15201-3040, United States", "id": "here:af:streetsection:IHU6kXfem3eZaTV1HRV5DD:CgcIBCDKg6IgEAEaAzExOChk", "resultType": "houseNumber", "houseNumberType": "PA", "address": {"label": "118 44th St, Pittsburgh, PA 15201-3040, United States", "countryCode": "USA", "countryName": "United States", "stateCode": "PA", "state": "Pennsylvania", "county": "Allegheny", "city": "Pittsburgh", "district": "Central Lawrenceville", "street": "44th St", "postalCode": "15201-3040", "houseNumber": "118"}, "position": {"lat": 40.4731, "lng": -79.96231}, "access": [{"lat": 40.47321, "lng": -79.96223}], "mapView": {"west": -79.96349, "south": 40.4722, "east": -79.96113, "north": 40.474}, "scoring": {"queryScore": 1.0, "fieldScore": {"state": 1.0, "city": 1.0, "streets": [1.0], "houseNumber": 1.0}}}]}, {"items": [{"title": "4119 Butler St, Pittsburgh, PA 15201-3121, United States", "id": "here:af:streetsection:OPZusfbXNc3qqTZ832IvOC:CgcIBCC-2qMgEAEaBDQxMTkoZA", "resultType": "houseNumber", "houseNumberType": "PA", "address": {"label": "4119 Butler St, Pittsburgh, PA 15201-3121, United States", "countryCode": "USA", "countryName": "United States", "stateCode": "PA", "state": "Pennsylvania", "county": "Allegheny", "city": "Pittsburgh", "district": "Central Lawrenceville", "street": "Butler St", "postalCode": "15201-3121", "houseNumber": "4119"}, "position": {"lat": 40.47009, "lng": -79.96107}, "access": [{"lat": 40.46998, "lng": -79.96078}], "mapView": {"west": -79.96225, "south": 40.46919, "east": -79.95989, "north": 40.47099}, "scoring": {"queryScore": 1.0, "fieldScore": {"state": 1.0, "city": 1.0, "streets": [1.0], "houseNumber": 1.0}}}]}, {"items": [{"title": "1001 Liberty Ave, Pittsburgh, PA 15222-3705, United States", "id": "here:af:streetsection:mLzcmN4.A3kHc3ZkWsAjFD:CgcIBCCG_qAgEAEaBDEwMDEoZA", "resultType": "houseNumber", "houseNumberType": "PA", "address": {"label": "1001 Liberty Ave, Pittsburgh, PA 15222-3705, United States", "countryCode": "USA", "countryName": "United States", "stateCode": "PA", "state": "Pennsylvania", "county": "Allegheny", "city": "Pittsburgh", "district": "Cultural District", "street": "Liberty Ave", "postalCode": "15222-3705", "houseNumber": "1001"}, "position": {"lat": 40.44427, "lng": -79.99456}, "access": [{"lat": 40.44368, "lng": -79.99519}], "mapView": {"west": -79.99574, "south": 40.44337, "east": -79.99338, "north": 40.44517}, "scoring": {"queryScore": 1.0, "fieldScore": {"state": 1.0, "city": 1.0, "streets": [1.0], "houseNumber": 1.0}}}]}, {"items": [{"title": "5933 Baum Blvd, Pittsburgh, PA 15206-3807, United States", "id": "here:af:streetsection:TWiDtzgDTcUao9iiVi.sPD:CggIBCCrzcqeAhABGgQ1OTMzKGQ", "resultType": "houseNumber", "houseNumberType": "PA", "address": {"label": "5933 Baum Blvd, Pittsburgh, PA 15206-3807, United States", "countryCode": "USA", "countryName": "United States", "stateCode": "PA", "state": "Pennsylvania", "county": "Allegheny", "city": "Pittsburgh", "district": "East Liberty", "street": "Baum Blvd", "postalCode": "15206-3807", "houseNumber": "5933"}, "position": {"lat": 40.46066, "lng": -79.92681}, "access": [{"lat": 40.46045, "lng": -79.9267}], "mapView": {"west": -79.92799, "south": 40.45976, "east": -79.92563, "north": 40.46156}, "scoring": {"queryScore": 1.0, "fieldScore": {"state": 1.0, "city": 1.0, "streets": [1.0], "houseNumber": 1.0}}}]}, {"items": [{"title": "4825 Frew St, Pittsburgh, PA 15213-3824, United States", "id": "here:af:streetsection:6URV8uOPgURhfzOEmH4KxD:EAIaBDQ4MjUoZA", "resultType": "houseNumber", "houseNumberType": "interpolated", "address": {"label": "4825 Frew St, Pittsburgh, PA 15213-3824, United States", "countryCode": "USA", "countryName": "United States", "stateCode": "PA", "state": "Pennsylvania", "county": "Allegheny", "city": "Pittsburgh", "district": "Squirrel Hill North", "street": "Frew St", "postalCode": "15213-3824", "houseNumber": "4825"}, "position": {"lat": 40.4411, "lng": -79.9481}, "access": [{"lat": 40.44101, "lng": -79.94797}], "mapView": {"west": -79.94928, "south": 40.4402, "east": -79.94692, "north": 40.442}, "scoring": {"queryScore": 1.0, "fieldScore": {"state": 1.0, "city": 1.0, "streets": [1.0], "houseNumber": 1.0}}}]}, {"items": [{"title": "921 Bryn Mawr Rd, Pittsburgh, PA 15219-5724, United States", "id": "here:af:streetsection:CdQgZX6V91QdDkWF6v4UEB:CgcIBCDdgaEgEAEaAzkyMShk", "resultType": "houseNumber", "houseNumberType": "PA", "address": {"label": "921 Bryn Mawr Rd, Pittsburgh, PA 15219-5724, United States", "countryCode": "USA", "countryName": "United States", "stateCode": "PA", "state": "Pennsylvania", "county": "Allegheny", "city": "Pittsburgh", "district": "Upper Hill", "street": "Bryn Mawr Rd", "postalCode": "15219-5724", "houseNumber": "921"}, "position": {"lat": 40.45193, "lng": -79.95785}, "access": [{"lat": 40.45172, "lng": -79.95798}], "mapView": {"west": -79.95903, "south": 40.45103, "east": -79.95667, "north": 40.45283}, "scoring": {"queryScore": 1.0, "fieldScore": {"state": 1.0, "city": 1.0, "streets": [1.0], "houseNumber": 1.0}}}]}, {"items": [{"title": "450 55th St, Pittsburgh, PA 15201-2321, United States", "id": "here:af:streetsection:icnMLP8lgpMZKO9rKKkiQC:EAIaAzQ1MChk", "resultType": "houseNumber", "houseNumberType": "interpolated", "address": {"label": "450 55th St, Pittsburgh, PA 15201-2321, United States", "countryCode": "USA", "countryName": "United States", "stateCode": "PA", "state": "Pennsylvania", "county": "Allegheny", "city": "Pittsburgh", "district": "Upper Lawrenceville", "street": "55th St", "postalCode": "15201-2321", "houseNumber": "450"}, "position": {"lat": 40.48026, "lng": -79.94595}, "access": [{"lat": 40.48035, "lng": -79.94582}], "mapView": {"west": -79.94713, "south": 40.47936, "east": -79.94477, "north": 40.48116}, "scoring": {"queryScore": 1.0, "fieldScore": {"state": 1.0, "city": 1.0, "streets": [1.0], "houseNumber": 1.0}}}]}, {"items": [{"title": "5921 Alder St, Pittsburgh, PA 15232-2001, United States", "id": "here:af:streetsection:dNoaDCziPjlvByFcjXYD2B:CgcIBCD6qKIgEAEaBDU5MjEoZA", "resultType": "houseNumber", "houseNumberType": "PA", "address": {"label": "5921 Alder St, Pittsburgh, PA 15232-2001, United States", "countryCode": "USA", "countryName": "United States", "stateCode": "PA", "state": "Pennsylvania", "county": "Allegheny", "city": "Pittsburgh", "district": "Shadyside", "street": "Alder St", "postalCode": "15232-2001", "houseNumber": "5921"}, "position": {"lat": 40.45698, "lng": -79.92827}, "access": [{"lat": 40.45681, "lng": -79.92808}], "mapView": {"west": -79.92945, "south": 40.45608, "east": -79.92709, "north": 40.45788}, "scoring": {"queryScore": 1.0, "fieldScore": {"state": 1.0, "city": 1.0, "streets": [1.0], "houseNumber": 1.0}}}]}, {"items": [{"title": "4765 Liberty Ave, Pittsburgh, PA 15224-2039, United States", "id": "here:af:streetsection:RZPEvDHtkR-WA-YXZxXbSA:CgcIBCDKoKQgEAEaBDQ3NjUoZA", "resultType": "houseNumber", "houseNumberType": "PA", "address": {"label": "4765 Liberty Ave, Pittsburgh, PA 15224-2039, United States", "countryCode": "USA", "countryName": "United States", "stateCode": "PA", "state": "Pennsylvania", "county": "Allegheny", "city": "Pittsburgh", "district": "Bloomfield", "street": "Liberty Ave", "postalCode": "15224-2039", "houseNumber": "4765"}, "position": {"lat": 40.46119, "lng": -79.94754}, "access": [{"lat": 40.46093, "lng": -79.94773}], "mapView": {"west": -79.94872, "south": 40.46029, "east": -79.94636, "north": 40.46209}, "scoring": {"queryScore": 1.0, "fieldScore": {"state": 1.0, "city": 1.0, "streets": [1.0], "houseNumber": 1.0}}}]}, {"items": [{"title": "751 Gallion Ave, Pittsburgh, PA 15226-1630, United States", "id": "here:af:streetsection:UxUDt8I-SYw7CZv6ahEicD:CgcIBCCLuZ8gEAEaAzc1MShk", "resultType": "houseNumber", "houseNumberType": "PA", "address": {"label": "751 Gallion Ave, Pittsburgh, PA 15226-1630, United States", "countryCode": "USA", "countryName": "United States", "stateCode": "PA", "state": "Pennsylvania", "county": "Allegheny", "city": "Pittsburgh", "district": "Brookline", "street": "Gallion Ave", "postalCode": "15226-1630", "houseNumber": "751"}, "position": {"lat": 40.39583, "lng": -80.01798}, "access": [{"lat": 40.39571, "lng": -80.01813}], "mapView": {"west": -80.01916, "south": 40.39493, "east": -80.0168, "north": 40.39673}, "scoring": {"queryScore": 1.0, "fieldScore": {"state": 1.0, "city": 1.0, "streets": [1.0], "houseNumber": 1.0}}}]}, {"items": [{"title": "3382 Parkview Ave, Pittsburgh, PA 15213-4516, United States", "id": "here:af:streetsection:Jqs..tGf33bKJoaAFl3KRD:CgcIBCCX2aAgEAEaBDMzODIoZA", "resultType": "houseNumber", "houseNumberType": "PA", "address": {"label": "3382 Parkview Ave, Pittsburgh, PA 15213-4516, United States", "countryCode": "USA", "countryName": "United States", "stateCode": "PA", "state": "Pennsylvania", "county": "Allegheny", "city": "Pittsburgh", "district": "South Oakland", "street": "Parkview Ave", "postalCode": "15213-4516", "houseNumber": "3382"}, "position": {"lat": 40.43398, "lng": -79.95198}, "access": [{"lat": 40.43402, "lng": -79.95228}], "mapView": {"west": -79.95316, "south": 40.43308, "east": -79.9508, "north": 40.43488}, "scoring": {"queryScore": 1.0, "fieldScore": {"state": 1.0, "city": 1.0, "streets": [1.0], "houseNumber": 1.0}}}]}, {"items": [{"title": "2019 Centre Ave, Pittsburgh, PA 15219-6301, United States", "id": "here:af:streetsection:IuevwuHFNWyEf2v5lPRPJA:CgcIBCDGi6EgEAEaBDIwMTkoZA", "resultType": "houseNumber", "houseNumberType": "PA", "address": {"label": "2019 Centre Ave, Pittsburgh, PA 15219-6301, United States", "countryCode": "USA", "countryName": "United States", "stateCode": "PA", "state": "Pennsylvania", "county": "Allegheny", "city": "Pittsburgh", "district": "Middle Hill", "street": "Centre Ave", "postalCode": "15219-6301", "houseNumber": "2019"}, "position": {"lat": 40.44416, "lng": -79.97984}, "access": [{"lat": 40.444, "lng": -79.97971}], "mapView": {"west": -79.98102, "south": 40.44326, "east": -79.97866, "north": 40.44506}, "scoring": {"queryScore": 1.0, "fieldScore": {"state": 1.0, "city": 1.0, "streets": [1.0], "houseNumber": 1.0}}}]}, {"items": [{"title": "100 S Commons, Pittsburgh, PA 15212-5301, United States", "id": "here:af:streetsection:7IvWQGPQ4zm7A9.-crslVB:CgcIBCDs4ZQfEAEaAzEwMChk", "resultType": "houseNumber", "houseNumberType": "PA", "address": {"label": "100 S Commons, Pittsburgh, PA 15212-5301, United States", "countryCode": "USA", "countryName": "United States", "stateCode": "PA", "state": "Pennsylvania", "county": "Allegheny", "city": "Pittsburgh", "district": "Allegheny Center", "street": "S Commons", "postalCode": "15212-5301", "houseNumber": "100"}, "position": {"lat": 40.45105, "lng": -80.00519}, "access": [{"lat": 40.45023, "lng": -80.00537}], "mapView": {"west": -80.00637, "south": 40.45015, "east": -80.00401, "north": 40.45195}, "scoring": {"queryScore": 1.0, "fieldScore": {"state": 1.0, "city": 1.0, "streets": [1.0], "houseNumber": 1.0}}}]}, {"items": [{"title": "2738 Bergman St, Pittsburgh, PA 15204-1902, United States", "id": "here:af:streetsection:1tQHuOnw.rKYhNBbwzp-nD:CgcIBCD73aYgEAEaBDI3MzgoZA", "resultType": "houseNumber", "houseNumberType": "PA", "address": {"label": "2738 Bergman St, Pittsburgh, PA 15204-1902, United States", "countryCode": "USA", "countryName": "United States", "stateCode": "PA", "state": "Pennsylvania", "county": "Allegheny", "city": "Pittsburgh", "district": "Sheraden", "street": "Bergman St", "postalCode": "15204-1902", "houseNumber": "2738"}, "position": {"lat": 40.45306, "lng": -80.05129}, "access": [{"lat": 40.45296, "lng": -80.0514}], "mapView": {"west": -80.05247, "south": 40.45216, "east": -80.05011, "north": 40.45396}, "scoring": {"queryScore": 1.0, "fieldScore": {"state": 1.0, "city": 1.0, "streets": [1.0], "houseNumber": 1.0}}}]}, {"items": [{"title": "7008 Willard St, Pittsburgh, PA 15208-2841, United States", "id": "here:af:streetsection:FJUQGsNyz3w7J1fR6lgFzC:EAIaBDcwMDgoZA", "resultType": "houseNumber", "houseNumberType": "interpolated", "address": {"label": "7008 Willard St, Pittsburgh, PA 15208-2841, United States", "countryCode": "USA", "countryName": "United States", "stateCode": "PA", "state": "Pennsylvania", "county": "Allegheny", "city": "Pittsburgh", "district": "Point Breeze", "street": "Willard St", "postalCode": "15208-2841", "houseNumber": "7008"}, "position": {"lat": 40.44585, "lng": -79.90841}, "access": [{"lat": 40.44597, "lng": -79.90833}], "mapView": {"west": -79.90959, "south": 40.44495, "east": -79.90723, "north": 40.44675}, "scoring": {"queryScore": 1.0, "fieldScore": {"state": 1.0, "city": 1.0, "streets": [1.0], "houseNumber": 1.0}}}]}, {"items": [{"title": "5113 Keystone St, Pittsburgh, PA 15201-2539, United States", "id": "here:af:streetsection:4x0TxPOAP7Zuz8p.Hd2EVD:CgcIBCCmmqMgEAEaBDUxMTMoZA", "resultType": "houseNumber", "houseNumberType": "PA", "address": {"label": "5113 Keystone St, Pittsburgh, PA 15201-2539, United States", "countryCode": "USA", "countryName": "United States", "stateCode": "PA", "state": "Pennsylvania", "county": "Allegheny", "city": "Pittsburgh", "district": "Upper Lawrenceville", "street": "Keystone St", "postalCode": "15201-2539", "houseNumber": "5113"}, "position": {"lat": 40.47776, "lng": -79.95396}, "access": [{"lat": 40.47772, "lng": -79.95384}], "mapView": {"west": -79.95514, "south": 40.47686, "east": -79.95278, "north": 40.47866}, "scoring": {"queryScore": 1.0, "fieldScore": {"state": 1.0, "city": 1.0, "streets": [1.0], "houseNumber": 1.0}}}]}, {"items": [{"title": "320 Fort Duquesne Blvd, Pittsburgh, PA 15222-1100, United States", "id": "here:af:streetsection:ytvXpz05w79CkXzS5mJPiC:CggIBCDVxNaUAhABGgMzMjAoZA", "resultType": "houseNumber", "houseNumberType": "PA", "address": {"label": "320 Fort Duquesne Blvd, Pittsburgh, PA 15222-1100, United States", "countryCode": "USA", "countryName": "United States", "stateCode": "PA", "state": "Pennsylvania", "county": "Allegheny", "city": "Pittsburgh", "district": "Cultural District", "street": "Fort Duquesne Blvd", "postalCode": "15222-1100", "houseNumber": "320"}, "position": {"lat": 40.44284, "lng": -80.00689}, "access": [{"lat": 40.44288, "lng": -80.0069}], "mapView": {"west": -80.00807, "south": 40.44194, "east": -80.00571, "north": 40.44374}, "scoring": {"queryScore": 1.0, "fieldScore": {"state": 1.0, "city": 1.0, "streets": [1.0], "houseNumber": 1.0}}}]}, {"items": [{"title": "288 46th St, Pittsburgh, PA 15201-2867, United States", "id": "here:af:streetsection:KopTFzvhx.dnmeAKxel0VB:CgcIBCDFs6IgEAEaAzI4OChk", "resultType": "houseNumber", "houseNumberType": "PA", "address": {"label": "288 46th St, Pittsburgh, PA 15201-2867, United States", "countryCode": "USA", "countryName": "United States", "stateCode": "PA", "state": "Pennsylvania", "county": "Allegheny", "city": "Pittsburgh", "district": "Central Lawrenceville", "street": "46th St", "postalCode": "15201-2867", "houseNumber": "288"}, "position": {"lat": 40.4709, "lng": -79.95634}, "access": [{"lat": 40.47097, "lng": -79.95626}], "mapView": {"west": -79.95752, "south": 40.47, "east": -79.95516, "north": 40.4718}, "scoring": {"queryScore": 1.0, "fieldScore": {"state": 1.0, "city": 1.0, "streets": [1.0], "houseNumber": 1.0}}}]}, {"items": [{"title": "3414 Melwood St, Pittsburgh, PA 15219-3758, United States", "id": "here:af:streetsection:LW3QhcYchbHUw1caJl9VzA:CgcIBCDg36NOEAEaBDM0MTQoZA", "resultType": "houseNumber", "houseNumberType": "PA", "address": {"label": "3414 Melwood St, Pittsburgh, PA 15219-3758, United States", "countryCode": "USA", "countryName": "United States", "stateCode": "PA", "state": "Pennsylvania", "county": "Allegheny", "city": "Pittsburgh", "district": "Polish Hill", "street": "Melwood St", "postalCode": "15219-3758", "houseNumber": "3414"}, "position": {"lat": 40.45841, "lng": -79.96245}, "access": [{"lat": 40.45861, "lng": -79.96253}], "mapView": {"west": -79.96363, "south": 40.45751, "east": -79.96127, "north": 40.45931}, "scoring": {"queryScore": 1.0, "fieldScore": {"state": 1.0, "city": 1.0, "streets": [1.0], "houseNumber": 1.0}}}]}, {"items": [{"title": "710 N Homewood Ave, Pittsburgh, PA 15208-1807, United States", "id": "here:af:streetsection:YAqE2nZ9LaIFags50j.o5C:CgcIBCCIoKQgEAEaAzcxMChk", "resultType": "houseNumber", "houseNumberType": "PA", "address": {"label": "710 N Homewood Ave, Pittsburgh, PA 15208-1807, United States", "countryCode": "USA", "countryName": "United States", "stateCode": "PA", "state": "Pennsylvania", "county": "Allegheny", "city": "Pittsburgh", "district": "Homewood South", "street": "N Homewood Ave", "postalCode": "15208-1807", "houseNumber": "710"}, "position": {"lat": 40.45583, "lng": -79.89659}, "access": [{"lat": 40.45588, "lng": -79.89686}], "mapView": {"west": -79.89777, "south": 40.45493, "east": -79.89541, "north": 40.45673}, "scoring": {"queryScore": 1.0, "fieldScore": {"state": 1.0, "city": 1.0, "streets": [1.0], "houseNumber": 1.0}}}]}, {"items": [{"title": "424 Lloyd St, Pittsburgh, PA 15208-2829, United States", "id": "here:af:streetsection:-U0a-I0IKyiUoTgOa54UXC:CgcIBCD875ogEAEaAzQyNChk", "resultType": "houseNumber", "houseNumberType": "PA", "address": {"label": "424 Lloyd St, Pittsburgh, PA 15208-2829, United States", "countryCode": "USA", "countryName": "United States", "stateCode": "PA", "state": "Pennsylvania", "county": "Allegheny", "city": "Pittsburgh", "district": "Point Breeze", "street": "Lloyd St", "postalCode": "15208-2829", "houseNumber": "424"}, "position": {"lat": 40.44687, "lng": -79.90747}, "access": [{"lat": 40.44678, "lng": -79.90728}], "mapView": {"west": -79.90865, "south": 40.44597, "east": -79.90629, "north": 40.44777}, "scoring": {"queryScore": 1.0, "fieldScore": {"state": 1.0, "city": 1.0, "streets": [1.0], "houseNumber": 1.0}}}]}, {"items": [{"title": "6815 Hamilton Ave, Pittsburgh, PA 15208-1714, United States", "id": "here:af:streetsection:I7amEJQ31GdaTbqOAwhz4D:CgcIBCCopaQgEAEaBDY4MTUoZA", "resultType": "houseNumber", "houseNumberType": "PA", "address": {"label": "6815 Hamilton Ave, Pittsburgh, PA 15208-1714, United States", "countryCode": "USA", "countryName": "United States", "stateCode": "PA", "state": "Pennsylvania", "county": "Allegheny", "city": "Pittsburgh", "district": "Homewood West", "street": "Hamilton Ave", "postalCode": "15208-1714", "houseNumber": "6815"}, "position": {"lat": 40.45678, "lng": -79.90575}, "access": [{"lat": 40.45651, "lng": -79.90585}], "mapView": {"west": -79.90693, "south": 40.45588, "east": -79.90457, "north": 40.45768}, "scoring": {"queryScore": 1.0, "fieldScore": {"state": 1.0, "city": 1.0, "streets": [1.0], "houseNumber": 1.0}}}]}, {"items": [{"title": "5211 Kent Way, Pittsburgh, PA 15201-2535, United States", "id": "here:af:streetsection:tLnvldgqXUiqDafsFi93wD:CgcIBCC8sKMgEAEaBDUyMTEoZA", "resultType": "houseNumber", "houseNumberType": "PA", "address": {"label": "5211 Kent Way, Pittsburgh, PA 15201-2535, United States", "countryCode": "USA", "countryName": "United States", "stateCode": "PA", "state": "Pennsylvania", "county": "Allegheny", "city": "Pittsburgh", "district": "Upper Lawrenceville", "street": "Kent Way", "postalCode": "15201-2535", "houseNumber": "5211"}, "position": {"lat": 40.47948, "lng": -79.95227}, "access": [{"lat": 40.47944, "lng": -79.95222}], "mapView": {"west": -79.95345, "south": 40.47858, "east": -79.95109, "north": 40.48038}, "scoring": {"queryScore": 1.0, "fieldScore": {"state": 1.0, "city": 1.0, "streets": [1.0], "houseNumber": 1.0}}}]}, {"items": [{"title": "1806 Broadway Ave, Pittsburgh, PA 15216-3200, United States", "id": "here:af:streetsection:VHCkIzxfVufdW7hxXLdTKC:CgcIBCDI0p8gEAEaBDE4MDYoZA", "resultType": "houseNumber", "houseNumberType": "PA", "address": {"label": "1806 Broadway Ave, Pittsburgh, PA 15216-3200, United States", "countryCode": "USA", "countryName": "United States", "stateCode": "PA", "state": "Pennsylvania", "county": "Allegheny", "city": "Pittsburgh", "district": "Beechview", "street": "Broadway Ave", "postalCode": "15216-3200", "houseNumber": "1806"}, "position": {"lat": 40.4076, "lng": -80.02659}, "access": [{"lat": 40.40746, "lng": -80.02648}], "mapView": {"west": -80.02777, "south": 40.4067, "east": -80.02541, "north": 40.4085}, "scoring": {"queryScore": 1.0, "fieldScore": {"state": 1.0, "city": 1.0, "streets": [1.0], "houseNumber": 1.0}}}]}, {"items": [{"title": "2830 New Beaver Ave, Pittsburgh, PA 15233-1038, United States", "id": "here:af:streetsection:x8fTm0sB6dEaeL9xsdTJYC:EAIaBDI4MzAoZA", "resultType": "houseNumber", "houseNumberType": "interpolated", "address": {"label": "2830 New Beaver Ave, Pittsburgh, PA 15233-1038, United States", "countryCode": "USA", "countryName": "United States", "stateCode": "PA", "state": "Pennsylvania", "county": "Allegheny", "city": "Pittsburgh", "district": "Marshall-Shadeland", "street": "New Beaver Ave", "postalCode": "15233-1038", "houseNumber": "2830"}, "position": {"lat": 40.4688, "lng": -80.03801}, "access": [{"lat": 40.46874, "lng": -80.03817}], "mapView": {"west": -80.03919, "south": 40.4679, "east": -80.03683, "north": 40.4697}, "scoring": {"queryScore": 1.0, "fieldScore": {"state": 1.0, "city": 1.0, "streets": [1.0], "houseNumber": 1.0}}}]}, {"items": [{"title": "255 Robinson St, Pittsburgh, PA 15213-2300, United States", "id": "here:af:streetsection:PuqKTVJRItXN44cX22trEB:CgcIBCCr6qAgEAEaAzI1NShk", "resultType": "houseNumber", "houseNumberType": "PA", "address": {"label": "255 Robinson St, Pittsburgh, PA 15213-2300, United States", "countryCode": "USA", "countryName": "United States", "stateCode": "PA", "state": "Pennsylvania", "county": "Allegheny", "city": "Pittsburgh", "district": "West Oakland", "street": "Robinson St", "postalCode": "15213-2300", "houseNumber": "255"}, "position": {"lat": 40.44186, "lng": -79.96589}, "access": [{"lat": 40.44187, "lng": -79.96567}], "mapView": {"west": -79.96707, "south": 40.44096, "east": -79.96471, "north": 40.44276}, "scoring": {"queryScore": 1.0, "fieldScore": {"state": 1.0, "city": 1.0, "streets": [1.0], "houseNumber": 1.0}}}]}, {"items": [{"title": "5127 Lytle St, Pittsburgh, PA 15207-1875, United States", "id": "here:af:streetsection:BuuI-DMJBT3W-Y5dN7icUC:CgcIBCCmjp0gEAEaBDUxMjcoZA", "resultType": "houseNumber", "houseNumberType": "PA", "address": {"label": "5127 Lytle St, Pittsburgh, PA 15207-1875, United States", "countryCode": "USA", "countryName": "United States", "stateCode": "PA", "state": "Pennsylvania", "county": "Allegheny", "city": "Pittsburgh", "district": "Hazelwood", "street": "Lytle St", "postalCode": "15207-1875", "houseNumber": "5127"}, "position": {"lat": 40.40606, "lng": -79.94493}, "access": [{"lat": 40.406, "lng": -79.94517}], "mapView": {"west": -79.94611, "south": 40.40516, "east": -79.94375, "north": 40.40696}, "scoring": {"queryScore": 1.0, "fieldScore": {"state": 1.0, "city": 1.0, "streets": [1.0], "houseNumber": 1.0}}}]}, {"items": [{"title": "Melwood St, Pittsburgh, PA 15219, United States", "id": "here:af:streetsection:LW3QhcYchbHUw1caJl9VzA", "resultType": "street", "address": {"label": "Melwood St, Pittsburgh, PA 15219, United States", "countryCode": "USA", "countryName": "United States", "stateCode": "PA", "state": "Pennsylvania", "county": "Allegheny", "city": "Pittsburgh", "district": "Polish Hill", "street": "Melwood St", "postalCode": "15219"}, "position": {"lat": 40.45855, "lng": -79.96268}, "mapView": {"west": -79.96398, "south": 40.45801, "east": -79.96138, "north": 40.45907}, "scoring": {"queryScore": 0.89, "fieldScore": {"state": 1.0, "city": 1.0, "streets": [1.0]}}}]}, {"items": [{"title": "1000 Jancey St, Pittsburgh, PA 15206-1339, United States", "id": "here:af:streetsection:LuJOOF1kt2porWXRuVA12D:CgcIBCCjrd9iEAEaBDEwMDAoZA", "resultType": "houseNumber", "houseNumberType": "PA", "address": {"label": "1000 Jancey St, Pittsburgh, PA 15206-1339, United States", "countryCode": "USA", "countryName": "United States", "stateCode": "PA", "state": "Pennsylvania", "county": "Allegheny", "city": "Pittsburgh", "district": "Morningside", "street": "Jancey St", "postalCode": "15206-1339", "houseNumber": "1000"}, "position": {"lat": 40.47614, "lng": -79.93059}, "access": [{"lat": 40.47621, "lng": -79.93079}], "mapView": {"west": -79.93177, "south": 40.47524, "east": -79.92941, "north": 40.47704}, "scoring": {"queryScore": 1.0, "fieldScore": {"state": 1.0, "city": 1.0, "streets": [1.0], "houseNumber": 1.0}}}]}, {"items": [{"title": "422 S Lang Ave, Pittsburgh, PA 15208-2902, United States", "id": "here:af:streetsection:ahfeMWIInGSeuf5luqVe2D:CgcIBCDX_5sgEAEaAzQyMihk", "resultType": "houseNumber", "houseNumberType": "PA", "address": {"label": "422 S Lang Ave, Pittsburgh, PA 15208-2902, United States", "countryCode": "USA", "countryName": "United States", "stateCode": "PA", "state": "Pennsylvania", "county": "Allegheny", "city": "Pittsburgh", "district": "Point Breeze", "street": "S Lang Ave", "postalCode": "15208-2902", "houseNumber": "422"}, "position": {"lat": 40.44659, "lng": -79.90614}, "access": [{"lat": 40.44652, "lng": -79.90584}], "mapView": {"west": -79.90732, "south": 40.44569, "east": -79.90496, "north": 40.44749}, "scoring": {"queryScore": 1.0, "fieldScore": {"state": 1.0, "city": 1.0, "streets": [1.0], "houseNumber": 1.0}}}]}, {"items": [{"title": "501 Delmont Ave, Pittsburgh, PA 15210-1254, United States", "id": "here:af:streetsection:7xAlg3.iOzqD9CJaYaWZjA:CgcIBCCK458gEAEaAzUwMShk", "resultType": "houseNumber", "houseNumberType": "PA", "address": {"label": "501 Delmont Ave, Pittsburgh, PA 15210-1254, United States", "countryCode": "USA", "countryName": "United States", "stateCode": "PA", "state": "Pennsylvania", "county": "Allegheny", "city": "Pittsburgh", "district": "Beltzhoover", "street": "Delmont Ave", "postalCode": "15210-1254", "houseNumber": "501"}, "position": {"lat": 40.41811, "lng": -80.00369}, "access": [{"lat": 40.41811, "lng": -80.00398}], "mapView": {"west": -80.00487, "south": 40.41721, "east": -80.00251, "north": 40.41901}, "scoring": {"queryScore": 1.0, "fieldScore": {"state": 1.0, "city": 1.0, "streets": [1.0], "houseNumber": 1.0}}}]}, {"items": [{"title": "4603 Carlton St, Pittsburgh, PA 15201-1743, United States", "id": "here:af:streetsection:-4tZI3zdUEcnwgeILg..MA:CgcIBCCs9KEgEAEaBDQ2MDMoZA", "resultType": "houseNumber", "houseNumberType": "PA", "address": {"label": "4603 Carlton St, Pittsburgh, PA 15201-1743, United States", "countryCode": "USA", "countryName": "United States", "stateCode": "PA", "state": "Pennsylvania", "county": "Allegheny", "city": "Pittsburgh", "district": "Central Lawrenceville", "street": "Carlton St", "postalCode": "15201-1743", "houseNumber": "4603"}, "position": {"lat": 40.47114, "lng": -79.95597}, "access": [{"lat": 40.47103, "lng": -79.95589}], "mapView": {"west": -79.95715, "south": 40.47024, "east": -79.95479, "north": 40.47204}, "scoring": {"queryScore": 1.0, "fieldScore": {"state": 1.0, "city": 1.0, "streets": [1.0], "houseNumber": 1.0}}}]}, {"items": [{"title": "814 Crawford St, Pittsburgh, PA 15219-3622, United States", "id": "here:af:streetsection:BAyWamCdLelU3q-9QrzKxC:CgcIBCCw5KteEAEaAzgxNChk", "resultType": "houseNumber", "houseNumberType": "PA", "address": {"label": "814 Crawford St, Pittsburgh, PA 15219-3622, United States", "countryCode": "USA", "countryName": "United States", "stateCode": "PA", "state": "Pennsylvania", "county": "Allegheny", "city": "Pittsburgh", "district": "Crawford Roberts Hill", "street": "Crawford St", "postalCode": "15219-3622", "houseNumber": "814"}, "position": {"lat": 40.44453, "lng": -79.98814}, "access": [{"lat": 40.44447, "lng": -79.98828}], "mapView": {"west": -79.98932, "south": 40.44363, "east": -79.98696, "north": 40.44543}, "scoring": {"queryScore": 1.0, "fieldScore": {"state": 1.0, "city": 1.0, "streets": [1.0], "houseNumber": 1.0}}}]}, {"items": [{"title": "223 Fisk St, Pittsburgh, PA 15201-2805, United States", "id": "here:af:streetsection:OWYcMYXrmQPukFiuCZ1TUB:CgcIBCCfm6MgEAEaAzIyMyhk", "resultType": "houseNumber", "houseNumberType": "PA", "address": {"label": "223 Fisk St, Pittsburgh, PA 15201-2805, United States", "countryCode": "USA", "countryName": "United States", "stateCode": "PA", "state": "Pennsylvania", "county": "Allegheny", "city": "Pittsburgh", "district": "Central Lawrenceville", "street": "Fisk St", "postalCode": "15201-2805", "houseNumber": "223"}, "position": {"lat": 40.46879, "lng": -79.9606}, "access": [{"lat": 40.46869, "lng": -79.96076}], "mapView": {"west": -79.96178, "south": 40.46789, "east": -79.95942, "north": 40.46969}, "scoring": {"queryScore": 1.0, "fieldScore": {"state": 1.0, "city": 1.0, "streets": [1.0], "houseNumber": 1.0}}}]}, {"items": [{"title": "303 N Neville St, Pittsburgh, PA 15213-1601, United States", "id": "here:af:streetsection:CfLGohhz2DIkERlcGsR2BB:CgcIBCCjh6EgEAEaAzMwMyhk", "resultType": "houseNumber", "houseNumberType": "PA", "address": {"label": "303 N Neville St, Pittsburgh, PA 15213-1601, United States", "countryCode": "USA", "countryName": "United States", "stateCode": "PA", "state": "Pennsylvania", "county": "Allegheny", "city": "Pittsburgh", "district": "Shadyside", "street": "N Neville St", "postalCode": "15213-1601", "houseNumber": "303"}, "position": {"lat": 40.45252, "lng": -79.94938}, "access": [{"lat": 40.45245, "lng": -79.94964}], "mapView": {"west": -79.95056, "south": 40.45162, "east": -79.9482, "north": 40.45342}, "scoring": {"queryScore": 1.0, "fieldScore": {"state": 1.0, "city": 1.0, "streets": [1.0], "houseNumber": 1.0}}}]}, {"items": [{"title": "1725 Larkins Way, Pittsburgh, PA 15203-1815, United States", "id": "here:af:streetsection:l4Gv3fHpIbASgYC5r3IQ-B:CgcIBCCKqKUgEAEaBDE3MjUoZA", "resultType": "houseNumber", "houseNumberType": "PA", "address": {"label": "1725 Larkins Way, Pittsburgh, PA 15203-1815, United States", "countryCode": "USA", "countryName": "United States", "stateCode": "PA", "state": "Pennsylvania", "county": "Allegheny", "city": "Pittsburgh", "district": "Southside Flats", "street": "Larkins Way", "postalCode": "15203-1815", "houseNumber": "1725"}, "position": {"lat": 40.42755, "lng": -79.98111}, "access": [{"lat": 40.42744, "lng": -79.98112}], "mapView": {"west": -79.98229, "south": 40.42665, "east": -79.97993, "north": 40.42845}, "scoring": {"queryScore": 1.0, "fieldScore": {"state": 1.0, "city": 1.0, "streets": [1.0], "houseNumber": 1.0}}}]}, {"items": [{"title": "1718 W Liberty Ave, Pittsburgh, PA 15226, United States", "id": "here:af:streetsection:37aXJ3HHtWLyNBK-eoRmvC:CgcIBCD1758gEAEaBDE3MTgoZA", "resultType": "houseNumber", "houseNumberType": "PA", "address": {"label": "1718 W Liberty Ave, Pittsburgh, PA 15226, United States", "countryCode": "USA", "countryName": "United States", "stateCode": "PA", "state": "Pennsylvania", "county": "Allegheny", "city": "Pittsburgh", "district": "Beechview", "street": "W Liberty Ave", "postalCode": "15226", "houseNumber": "1718"}, "position": {"lat": 40.40802, "lng": -80.01833}, "access": [{"lat": 40.40798, "lng": -80.01808}], "mapView": {"west": -80.01951, "south": 40.40712, "east": -80.01715, "north": 40.40892}, "scoring": {"queryScore": 1.0, "fieldScore": {"state": 1.0, "city": 1.0, "streets": [1.0], "houseNumber": 1.0}}}]}]